title,price,dealer_name,lat,long
2012 Jeep Wrangler Unlimited Sport,$23500,The Auto Store,43.113209,-78.69639352692307
2016 BMW X6 xDrive35i,$37659,Valley Cadillac,43.093182150000004,-77.58125894785404
2019 Toyota 4Runner SR5,$37293,North Coast Auto Mall of Bedford,41.39931105263158,-81.54470015789474
2018 Mercedes-Benz C-Class C 300 4MATIC,$37000,Mercedes-Benz of Wilkes-Barre,41.2550665,-75.83853596929617
2019 Ford Flex SEL,$33995,Suburban Ford of Sterling Heights,42.5898348,-83.03422791848709
2019 Ford Flex SEL,$30421,Pat Milliken Ford,42.3662761,-83.27452399076908
2019 Ford Mustang EcoBoost Premium,$30800,Jack Demmer Ford,42.28148497986839,-83.39787591934355
2020 Toyota Prius LE,$29454,Tri County Toyota,40.22088643943626,-75.54243162044268
2013 Toyota Highlander Limited,$25491,Sloane Toyota of Philadelphia,40.055843333333335,-75.07431633333333
2014 Lexus GX 460 Base,$33888,Ourisman Lexus,39.10879116705059,-77.15952770108233
2020 Toyota Corolla LE,$20000,Koons Sterling Ford,39.016869650000004,-77.378153878426
2017 BMW X3 xDrive28i,$24995,BM Motorcars,40.6030364892353,-74.26910110147625
2020 Lexus NX 300 F Sport,$43399,DARCARS Lexus of Englewood,40.894520227662156,-73.9722879931119
2018 Volvo XC60 T5 Inscription,$35991,Fitzgerald Auto Mall Wheaton,39.03552728571429,-77.04985783673469
2017 Hyundai Elantra SE,$20490,Easterns Automotive Group of Laurel- Curbside and Home Delivery Available,39.101102,-76.821686
2018 Mazda CX-5 Grand Touring,$27980,Ourisman Jeep,38.978317,-77.09149
2020 Chrysler 300 S,$34500,Koons Tysons Chrysler Dodge Jeep RAM,38.9177764,-77.23558638124621
2016 Mercedes-Benz S-Class S 550,$42444,Auto Buying Service,38.87139250929483,-77.2369953408023
2016 BMW M235 i xDrive,$22444,Auto Buying Service,38.87139250929483,-77.2369953408023
2017 Cadillac Escalade ESV Platinum,$49444,Auto Buying Service,38.87139250929483,-77.2369953408023
2014 Land Rover Range Rover 5.0L Supercharged,$36966,Merlex Auto Group,38.8764803,-77.1087201
2013 GMC Yukon Denali,$20798,Dan Tobin Chevrolet Buick GMC,40.11045225,-83.08328750615749
2017 Jeep Grand Cherokee Limited,$28200,Lustine Chrysler Jeep Dodge RAM,38.644507749554045,-77.26469540118966
2021 Toyota Supra 3.0,$57810,Bayside Chevrolet Toyota,38.562400499999995,-76.60039587705955
2020 Volvo XC90 T6 Inscription 7 Passenger,$63500,Volvo Cars of Fredericksburg,38.311608,-77.505395
2018 GMC Sierra 1500 SLT,$48692,The Used Car Factory,38.43081120730529,-76.72220547050016
2016 Land Rover Range Rover 3.0L Supercharged HSE,$50000,Alpha Motorsports Fredericksburg,38.27208745,-77.4946876
2020 Honda Civic LX,$23750,Bayside Pre-Owned Hollywood,38.3851398,-76.6314662
2016 Volvo XC60 T5 Premier,$22895,Xtreme Truck and Auto Center,43.05839846656489,-85.95474701614316
2018 Genesis G80 3.8,$35995,Mid-Towne Auto Center,39.49477650068675,-84.33669473815081
2015 Land Rover Range Rover Sport Supercharged HSE,$44998,The Highline Group,42.634545,-71.330786
2018 Mercedes-Benz GLA 250 4MATIC,$31995,Mercedes-Benz of Warwick,41.6953954,-71.49833199999999
2015 BMW 550 i xDrive,$29283,Eastside Motoring,42.3850774,-71.2637931711528
2019 Jeep Grand Cherokee Limited,$37588,Southern Dodge Chrysler Jeep Ram Fiat Norfolk,36.8843472,-76.2167063
2019 Honda Civic LX,$22790,Indy Honda,39.7731036,-86.1542341
2018 Acura MDX 3.5L,$29999,Automax Chicago,41.937717750000004,-87.74655252582644
2016 BMW X1 xDrive 28i,$23500,Elite Motors,42.361645,-87.875787
2016 BMW X1 xDrive 28i,$26500,Webb Chevy,41.72112607314471,-87.74094140134459
2020 Ford EcoSport Titanium,$22400,Napleton Off Lease,42.14231660649954,-88.00458957133496
2013 Chevrolet Suburban 1500 LTZ,$24990,Gillespie Ford,42.4154252,-88.1142509
2014 Mercedes-Benz S-Class S 550 4MATIC,$38995,Highline Auto Sales,41.749809476510066,-87.93793129530201
2019 Audi Q8 3.0T Premium,$72774,Perillo Downers Grove,41.80965145454545,-87.99448209090909
2019 Audi S5 3.0T Premium Plus,$56989,Motor Werks - Barrington Auto Mall ,42.133216653061226,-88.13629364285714
2018 Acura MDX 3.5L w/Technology Package,$37491,Audi Naperville,41.76587155,-88.18443167615875
2018 Audi A5 2.0T Prestige,$43991,Audi Naperville,41.76587155,-88.18443167615875
2016 Honda Odyssey Touring Elite,$25000,St. Charles Toyota,41.919298252858795,-88.28927801135809
2019 Audi S5 3.0T Prestige,$58989,Kearns Motor Car Co.,43.08408877754495,-88.76120287543749
2013 BMW X5 xDrive35i,$18000,TLC Motors,34.908514,-81.982107
2020 Honda Accord Touring 2.0T,$36990,Bommarito Honda Superstore,38.775929385721426,-90.36140461144693
2020 Lexus NX 300 F Sport,$38689,EchoPark Automotive Augusta Delivery Center,33.512571,-82.046064
2019 Honda Odyssey Touring,$39889,EchoPark Automotive Augusta Delivery Center,33.512571,-82.046064
2020 Lexus NX 300 F Sport,$37439,EchoPark Automotive Augusta Delivery Center,33.512571,-82.046064
2020 Mercedes-Benz GLB 250 Base,$44800,Jaguar Land Rover of North Atlanta,34.040486349039064,-84.32241215118452
2019 Ford Mustang GT,$40965,Jim Butler Chevrolet,38.5060135,-90.4507989
2018 Cadillac XT5 Premium Luxury,$30490,Elco Chevrolet & Cadillac,38.5918259,-90.5509362
2017 Chevrolet Corvette Z06,$76469,Gravity Autos Atlanta,33.9105437,-84.2895035
2020 Mercedes-Benz GLB 250 Base,$44517,Ed Voyles Kia of Chamblee,33.9105437,-84.2895035
2021 Audi Q5 45 Premium,$53495,Audi South Atlanta,33.562297,-84.517307
2018 GMC Acadia Denali,$48911,Serra of Jackson,35.678020639922686,-88.85193642086857
2017 Chevrolet Tahoe LT,$37061,Coggin Chevrolet at the Avenues,30.1727042,-81.5471326
2019 Ford Expedition XLT,$48900,Mullinax Ford of Central Florida,28.6743359,-81.4822031
2021 Toyota Supra 3.0,$59079,Subaru of North Tampa,28.0544869,-82.4514045
2018 Dodge Charger SXT Plus,$28926,Suncoast Chrysler Jeep Dodge,27.8394213,-82.7576945
2021 Jeep Wrangler Unlimited Rubicon,$63995,Mercedes-Benz of Pompano,26.2606652,-80.1251966
2016 Mazda Mazda3 i Touring,$14799,Florida Fine Cars Margate,26.2579287,-80.1926189
2019 Honda Civic LX,$22579,EchoPark Automotive Plano,33.0162774,-96.777718
2017 Hyundai Santa Fe SE,$20990,Sign It Drive It,33.21192421682464,-97.11186628859029
2018 Toyota Tacoma TRD Off Road,$40439,EchoPark Automotive Thornton,39.885042,-104.958125
2018 BMW X5 sDrive35i,$42982,Pinnacle Nissan,33.635059999999996,-111.9157733515245
2020 RAM 1500 Limited,$61888,Mercedes-Benz of North Scottsdale,33.6519678,-111.92796822785185
2019 Jeep Grand Cherokee Limited,$34975,Bill Luke Santan,33.28824335,-111.76320468091359
2020 Toyota Tacoma TRD Off Road,$44953,Midway Chevrolet,33.63902075,-112.10911097409462
2021 BMW X3 sDrive30i,$47991,Chapman BMW Chandler,33.322687450000004,-111.97120483273207
2020 Dodge Challenger R/T Scat Pack,$47581,Surprise Ford,33.608593150000004,-112.421005785717
2018 Ford Fusion Hybrid SE,$20839,EchoPark Automotive Phoenix,33.45935615,-112.28724070877965
2018 Ford Fusion Hybrid SE,$21859,EchoPark Automotive Phoenix,33.45935615,-112.28724070877965
2018 Tesla Model 3 Mid Range,$39490,Toyota Of Berkeley Certified Service Center,37.88588815674369,-122.30794749449836
2018 Lincoln MKC Premiere,$24800,Jack Demmer Lincoln,42.306885449999996,-83.2402816475684
2019 Kia Soul Base,$20000,Fuccillo Kia Schenectady,42.76705275,-73.89000944761257
2020 Lincoln Aviator Black Label AWD,$73488,Hines Park Lincoln,42.35930990116279,-83.44191583139535
2018 Mercedes-Benz E-Class E 400,$50300,Where Luxury Meets,40.652739,-74.21581
2017 Porsche Macan Turbo,$60000,Koons Tysons Toyota,38.9325866,-77.2433677
2020 Toyota Land Cruiser Heritage Edition,$102000,Koons Tysons Toyota,38.9325866,-77.2433677
2015 INFINITI Q50 Sport,$21820,Porsche Tysons Corner,38.9291979,-77.24354102728748
2017 Lexus IS 300 Base,$25444,Auto Buying Service,38.87139250929483,-77.2369953408023
2020 RAM 1500 Big Horn,$42000,LaFontaine Chrysler Dodge Jeep Ram and Fiat of Lansing,42.6682787,-84.53727638890274
2018 Mercedes-Benz C-Class C 300 4MATIC,$31000,Germain Honda of Dublin,40.104665,-83.091331
2018 Chevrolet Suburban LT,$52995,East Hills Chevrolet of Roslyn,40.79750745,-73.66624046017247
2014 Lexus GS 350 Base,$24477,Lease Return Center,38.553712,-77.332674
2020 Volvo XC90 T6 Inscription 6 Passenger,$63000,Volvo Cars of Fredericksburg,38.311608,-77.505395
2017 Lexus ES 350 Base,$25995,Autos Direct of Fredericksburg - Lafayette,38.25719675,-77.49563237439313
2020 GMC Yukon SLT,$64347,Imperial Chevrolet,42.10259907207219,-71.56798030712507
2020 Genesis G80 3.8,$40000,Grieco Hyundai of Johnston,41.832428,-71.547768
2019 Lexus RC 350 F Sport,$46336,Ira Toyota of Tewksbury,42.620405149999996,-71.25569630573585
2018 BMW 320 i xDrive,$27495,Boston Foreign Motor,42.35320133333333,-71.13870800000001
2018 Honda Odyssey EX-L,$30204,North City Honda,42.00214435,-87.6903774
2019 Honda Pilot EX-L,$37992,ALL-STAR Honda,42.932104949999996,-87.95064979086925
2019 Lincoln Nautilus Reserve,$49993,Heiser Ford Lincoln,43.11897309446689,-87.93196089878293
2008 Lexus LS 460 Base,$21900,Champion Motorsports,41.66140822741286,-87.75253732625437
2020 Nissan Murano SL,$37899,Zeigler Nissan of Orland Park,41.60183680479623,-87.82917613442532
2016 BMW X1 xDrive 28i,$24777,Hyundai of Palatine,42.15362149350649,-88.04826136363636
2018 Mercedes-Benz GLC 300 Base 4MATIC,$42500,Mercedes-Benz of Westmont,41.810068290322576,-87.97232948387096
2020 Chevrolet Tahoe Premier,$65500,Zeigler Chevrolet,42.05013596752005,-88.04959301446641
2020 Nissan Murano SL,$38895,Woodfield Nissan,42.0503035,-88.09784249305503
2017 Nissan Murano Platinum,$31489,Curry Auto Center,39.15870400578102,-86.4945964989016
2020 Nissan Murano S,$31998,Wallace Mitsubishi,36.5591329,-82.5501141
2018 Ford Explorer XLT,$36390,Van Horn Ford of Lomira,43.58833176630866,-88.43340001657931
2018 Toyota Tundra SR5,$43000,Marion Chrysler Dodge Jeep Ram,35.64775975,-82.03604386029411
2015 Lexus GS 350 ,$28987,Hi-Line Autohaus,35.173467402010054,-80.74715585929648
2018 Acura TLX V6 w/Technology Package,$29700,Mazda of South Charlotte,35.09710305,-80.88209496538805
2017 Jeep Wrangler Unlimited Sport,$38798,BMW Certified Pre-Owned Nashville,36.10479315,-86.76071356736134
2018 Jeep Grand Cherokee Limited,$34298,BMW Certified Pre-Owned Nashville,36.10479315,-86.76071356736134
2019 Honda Odyssey EX-L,$37989,EchoPark Automotive Augusta Delivery Center,33.512571,-82.046064
2014 Chevrolet Corvette Stingray Z51,$56999,Shottenkirk Honda of Cartersville,34.169620699999996,-84.78268712447712
2019 Nissan Armada Platinum,$49999,Gwinnett Place Nissan,34.0026834,-84.1642408
2018 Cadillac XT5 Premium Luxury,$38990,Elco Chevrolet & Cadillac,38.5918259,-90.5509362
2020 Kia Telluride S,$41898,Vestavia Auto Plaza,33.416175,-86.803497
2020 Acura MDX 3.5L w/Technology Package,$46918,Duval Acura,30.324727102667758,-81.51999303159135
2017 Chevrolet Tahoe LT,$39487,Coggin Chevrolet at the Avenues,30.1727042,-81.5471326
2018 Mercedes-Benz E-Class E 400,$43499,Off Lease Only Orlando,28.451285872310788,-81.27531080544969
2021 Toyota Supra 3.0 Premium,$61981,Audi Melbourne,28.076759726551792,-80.70300069341978
2015 BMW 328 i,$13388,Driver's Auto Mart,26.054874528363943,-80.25174315960997
2018 BMW 540 i,$42783,Miami Car Credit,25.9523744,-80.20627214683398
2019 Volkswagen Jetta GLI 2.0T 35th Anniversary Edition,$9950,AE of Miami,25.827018099999997,-80.24134186080965
2021 Toyota Supra 3.0 Premium,$58995,Porsche Plano,33.0160854,-96.8138597
2020 Acura MDX 3.5L w/Technology Package,$36850,Precision Auto Sales,32.8214883,-96.630192
2020 Ford F-150 King Ranch,$59591,Joe Myers Ford,29.8621738,-95.5294047
2019 Honda Odyssey Elite,$46424,John Eagle Honda of Houston,29.9287644,-95.6391205
2017 Land Rover Range Rover 5.0L Supercharged Autobiography,$75998,Land Rover Jaguar Houston Central,29.782096,-95.44395286626403
2018 Toyota 4Runner Limited,$38244,Keating Toyota,29.4979666,-95.3855667
2020 Chevrolet Tahoe LT,$48667,Shottenkirk Nissan Katy,29.77375323361888,-95.81680783249833
2020 Ford Expedition XLT,$51490,Toyota of Cedar Park,30.5217266,-97.8153707
2018 Toyota Tacoma TRD Off Road,$39999,Emich Automotive,39.6938555,-104.93999626949103
2018 Jeep Grand Cherokee Limited,$29699,AutoNation Chrysler Jeep Broadway,39.618056100000004,-104.98915175569684
2018 Jaguar F-PACE 30t Premium,$38428,Stevinson Imports - Jaguar,39.6132027,-104.9798695
2018 Ford F-150 King Ranch,$43040,Larry H. Miller Ford Lakewood,39.7257608,-105.114473
2017 Toyota Highlander Limited,$32391,North Park Toyota of San Antonio,29.315701,-98.61246315008765
2019 Honda Ridgeline RTL-T,$41646,Honda of Superstition Springs,33.3887455,-111.69749911171253
2015 Honda Civic LX,$16000,Cactus Auto,32.27232880436489,-111.0004457482261
2019 Jeep Grand Cherokee Limited,$43250,Bill Luke Santan,33.28824335,-111.76320468091359
2018 Ford F-150 Platinum,$54500,Mark Kia ,33.4866752,-111.88944470527805
2020 RAM 1500 Big Horn,$37998,Showcase Honda,33.508390500000004,-112.05279568092652
2020 RAM 1500 Big Horn,$41075,Bill Luke Chrysler Jeep Dodge RAM,33.50857405,-112.11017952303409
2018 BMW X5 sDrive35i,$44991,Chapman BMW Chandler,33.322687450000004,-111.97120483273207
2009 Dodge Challenger SRT8,$22886,AutoNation USA Henderson,36.04905060320375,-115.02908878793592
2019 BMW 330 i,$36498,Rusnak Volvo Cars,34.146182,-118.0863599
2019 Honda CR-V EX-L,$31367,STG Auto Group - Garden Grove,33.762962851405625,-117.91999963253012
2019 Toyota Prius Prime Plus,$26999,Best Auto Sales,33.77384575952861,-117.97316823314526
2018 BMW 330 i,$27992,Penske Chevrolet of Cerritos,33.862859824120605,-118.0997261959799
2019 Honda Accord Sport,$28999,STG Auto Group of Bellflower,33.87481902288708,-118.14808411891481
2019 Audi RS 5 2.9T,$75990,Audi Oakland,37.748864499999996,-122.20556836717688
2018 Mazda CX-5 Sport,$24797,Mazda of West Ridge,43.2196133,-77.761281
2005 Nissan Pathfinder LE,$7995,Colonial Auto Sales,41.4302418,-81.3822515
2018 Mercedes-Benz C-Class C 300 4MATIC,$34350,Mercedes-Benz of Wilkes-Barre,41.2550665,-75.83853596929617
2021 Jeep Wrangler Unlimited 4xe Sahara,$57990,Susquehanna Chrysler Dodge Jeep RAM,40.02294395987902,-76.5431473566348
2018 BMW 440 i xDrive,$50695,Orange County BMW,41.31439565,-74.1389727684672
2017 Hyundai Elantra SE,$14999,Patriot Pre-Owned Autos,39.35428535,-76.69914030000001
2018 Audi Q7 2.0T Premium Plus,$44999,Jack Daniels Audi of Paramus,40.9218818,-74.0732643
2018 BMW 340 i xDrive,$34995,BM Motorcars,40.6030364892353,-74.26910110147625
2019 Audi S5 3.0T Premium Plus,$49998,Audi Rockville,39.070236,-77.13242437247501
2019 Mercedes-Benz AMG GT 63 4-Door,$144897,Benzel-Busch Motor Car,40.89189122734228,-73.97367660608333
2017 Lexus RX 350 350,$39380,DARCARS Lexus of Englewood,40.894520227662156,-73.9722879931119
2020 Chrysler 300 S,$33500,Koons Tysons Chrysler Dodge Jeep RAM,38.9177764,-77.23558638124621
2015 Mercedes-Benz S-Class S 550 4MATIC,$51444,Auto Buying Service,38.87139250929483,-77.2369953408023
2015 BMW 435 Gran Coupe i xDrive,$19444,Auto Buying Service,38.87139250929483,-77.2369953408023
2014 Lexus LS 460 Base,$30299,Merlex Auto Group,38.8764803,-77.1087201
2013 Mercedes-Benz SL-Class SL 550,$37299,Merlex Auto Group,38.8764803,-77.1087201
2016 Lexus GX 460 Base,$33966,Merlex Auto Group,38.8764803,-77.1087201
2016 Mazda CX-5 Grand Touring,$17995,Drive Direct,40.05829025,-82.95655900767797
2018 Mercedes-Benz C-Class C 300 4MATIC,$34708,Mercedes-Benz of Easton,40.0562835,-82.9177027
2018 Mazda Mazda3 Touring,$20000,Alexandria VW,38.836546150000004,-77.05971909910178
2018 BMW 540 i xDrive,$36550,Jamaica 26 Motors,40.7133325,-73.7647743
2016 Mercedes-Benz E-Class E 350 4MATIC,$30999,Select Auto Imports,38.7973202308578,-77.13507601973642
2018 BMW X1 xDrive28i,$33988,Circle BMW,40.289349,-74.073847
2019 Nissan Rogue SL,$31181,Ricart Used Car Factory,39.8881155,-82.8856091
2019 Chevrolet Tahoe LT,$53700,Lustine Chrysler Jeep Dodge RAM,38.644507749554045,-77.26469540118966
2018 Mazda CX-5 Grand Touring,$27500,National Auto of Waldorf,38.65146885179143,-76.88296177050343
2018 Ford F-150 King Ranch,$54382,INFINITI of Grand Rapids,42.932323,-85.6096
2020 Porsche 911 Carrera 4S,$170998,Audi Shrewsbury,42.27715005,-71.69269017571105
2015 Honda Accord EX-L,$20500,Toyota of Nashua,42.728864099999996,-71.44636230962973
2018 Volvo V60 Cross Country T5,$26670,Volvo Village of Danvers,42.55155472850704,-70.94407250191698
2018 Mercedes-Benz C-Class C 300 4MATIC,$37154,Mercedes-Benz of Hanover,42.14921905,-70.84372200638788
2019 Honda Civic LX,$23423,Lockhart Cadillac Inc. - North,39.9714951632653,-86.00470451020408
2012 Land Rover Range Rover Evoque Pure Plus,$18000,M & I Motors,42.20375156,-87.83541559999999
2016 GMC Yukon SLT,$39990,Sommer's Automotive,43.2206996,-87.9990565
2016 GMC Yukon SLT,$42999,Van Horn Chevrolet of Plymouth,43.74727355555555,-87.94639232323233
2016 Audi A6 3.0T Prestige,$31995,Volkswagen of Orland Park,41.6016182,-87.8428351
2019 Toyota RAV4 LE,$29713,Napleton's Palatine Mazda,42.142806113382285,-88.02563411338228
2021 Honda CR-V Hybrid Touring,$40632,Bob Rohrman Schaumburg Kia,42.05035809403311,-88.05294843248294
2015 INFINITI QX80 Base,$32990,Napleton's Schaumburg Buick GMC,42.048988316164255,-88.08550409415301
2019 RAM 1500 Big Horn,$39937,Zeigler Chrysler Dodge Jeep Ram of Downers Grove,41.80573205,-88.0405724062683
2015 Honda Accord EX-L,$17950,4 Wheels of Fox Lake,42.399915012167675,-88.18365664690651
2018 Porsche Panamera 4,$71995,Cadillac of Naperville,41.77552285,-88.18740271919273
2016 GMC Yukon SLT,$44990,Gary Lang Automotive Group,42.2324072,-88.2881529
2018 Chevrolet Suburban LT,$42990,Southern States Pre-Owned,35.81702475,-78.62596561471402
2018 Toyota 4Runner Sport,$47238,JOHN HIESTER CDJR IN LILLINGTON,35.411881550000004,-78.80811795391182
2019 Lexus GX 460 Base,$49985,Randy Marion Buick GMC,35.4045371,-80.8541955
2018 Chevrolet Suburban LT,$39994,Best Of Clinton,35.0021491,-78.3097559
2020 Ford F-150 Lariat,$52962,Heller Ford,40.736834,-89.03177
2020 Toyota Camry XSE,$36890,Mungenast St. Louis Honda,38.5541275,-90.4070336
2019 Honda Ridgeline Black Edition,$44289,EchoPark Automotive Augusta Delivery Center,33.512571,-82.046064
2018 BMW X2 xDrive28i,$32995,United BMW,34.06715375,-84.31776349776027
2018 Land Rover Range Rover Velar P380 S,$50900,Jaguar Land Rover Buckhead,33.83768954999999,-84.36875098232096
2017 Ford F-150 Lariat,$33399,AX Auto Inc.,33.755810545454544,-84.47891890909091
2014 RAM ProMaster 1500 Tradesman,$36900,Woody's Dodge Jeep Chrysler RAM,39.782453464646466,-93.55296591919192
2021 Honda Odyssey Touring,$43875,Honda of Tiffany Springs,39.26196485,-94.66309499367786
2020 Toyota Tundra SR5,$49883,Coggin Toyota at the Avenues,30.1636484,-81.5380573
2011 BMW 328 i xDrive,$7995,Discount Auto Sales of America,25.904542999999997,-80.2442543
2019 BMW 740 i,$54480,Autos of Dallas,33.015647,-96.78298523817966
2018 Audi S4 3.0T Premium Plus,$40590,Earth Motorcars,32.9731327,-96.8473467
2019 Honda Pilot EX-L,$30000,AutoSavvy Fort Worth,32.836924,-97.311305
2020 Dodge Challenger SRT Hellcat,$96995,Alfa Romeo of Fort Worth,32.754913900000005,-97.48082797670793
2001 Lexus LX 470 ,$7400,Greg May Honda,31.57711,-97.072956
2018 Ford F-150 XLT,$39588,Interstate Ford,40.0865214,-104.9762711
2020 Ford Fusion SEL,$19599,AutoNation Ford Littleton,39.5846561,-104.9883817
2020 Kia Rio S,$17189,EchoPark Automotive Colorado Springs,38.950546450000004,-104.79639966031195
2016 Ford Edge Titanium,$18887,Van Chevrolet,33.6304789,-111.89580055546949
2015 GMC Yukon Denali,$39988,Van Chevrolet,33.6304789,-111.89580055546949
2010 Chevrolet Malibu LTZ,$10000,Cactus Auto,32.27232880436489,-111.0004457482261
2019 Jeep Grand Cherokee Altitude,$32975,Bill Luke Santan,33.28824335,-111.76320468091359
2020 Chevrolet Traverse LS,$29700,AutoSavvy Gilbert,33.36789075,-111.8410562448864
2018 Ford Fusion Hybrid SE,$18483,Camelback Ford Lincoln,33.50929508163265,-112.05264336734693
2020 RAM 1500 Big Horn,$45575,Bill Luke Chrysler Jeep Dodge RAM,33.50857405,-112.11017952303409
2020 Dodge Challenger R/T Scat Pack,$50981,Surprise Ford,33.608593150000004,-112.421005785717
2018 Mercedes-Benz C-Class C 300,$31997,Mercedes-Benz of Encino,34.15847993183787,-118.49739067323587
2015 Chrysler 300 Limited,$19989,Roberts Auto Sales,37.70942895,-120.99548725227348
2016 Chevrolet Corvette Z06,$77990,Elite Motor Cars,37.96478509068981,-122.05136285027251
2014 Toyota FJ Cruiser Base,$44800,North State Auto,37.91043581722326,-122.06518749413893
2014 BMW 328 i xDrive,$21145,Klick Lewis Chevrolet-Buick,40.311885775510206,-76.58660979591836
2020 Ford Explorer XLT,$29995,BrokersAndSellers.com,42.269736775510204,-83.23445826530613
2017 Lexus CT 200h Base,$28950,Wilkie Lexus,40.01677128493205,-75.30881959401981
2019 Mercedes-Benz GLA 250 Base 4MATIC,$33995,Route 46 Nissan,40.89393,-74.230548
2018 Ford F-150 Lariat,$44995,Fred Beans Ford of Langhorne,40.1758774,-74.88545504158199
2017 Jeep Grand Cherokee Limited,$30495,Dulles Motorcars Subaru Kia,39.10683939309565,-77.56197089837762
2014 Land Rover Range Rover Sport Supercharged HSE,$33999,Keyless Motors,40.69497205987608,-74.26317241868264
2015 Acura TLX Tech,$12999,Prestige Imports Auto Sales,40.20239239285714,-74.78606732142858
2020 Volkswagen Atlas Cross Sport 3.6L V6 SE w/Technology,$38987,Lindsay Volkswagen of Dulles,38.9971467,-77.4324345
2019 Acura TLX V6 w/Technology Package,$31480,Chevy Chase Acura,38.98778232653061,-77.09517980612245
2021 Volvo XC40 T5 R-Design,$43000,Koons Tysons Toyota,38.9325866,-77.2433677
2020 Jeep Grand Cherokee SRT,$61950,26 Motors Corp,40.884537,-73.8332103
2015 Mercedes-Benz S-Class S 550 4MATIC,$37444,Auto Buying Service,38.87139250929483,-77.2369953408023
2014 Land Rover Range Rover 5.0L Supercharged,$32966,Merlex Auto Group,38.8764803,-77.1087201
2019 Acura TLX V6,$29506,Plaza Auto Mall,40.6177464,-73.9455131316282
2018 GMC Sierra 1500 SLT,$41555,Hart Nissan of Nova,38.775539332057456,-77.18467614759601
2020 Nissan Rogue Sport S,$22383,DCH Ford of Eatontown,40.291167,-74.05053
2020 Jeep Grand Cherokee Limited,$31905,Maserati and Alfa Romeo of Monmouth,40.23058580446588,-74.03902355380183
2016 BMW 340 i xDrive,$31977,Koons Woodbridge Buick GMC,38.63608663157895,-77.2699944736842
2019 Audi Q7 45 Premium Plus,$45500,Koons Kia,38.64469253724783,-77.26482715914565
2020 Toyota Corolla LE,$21377,Off Lease Motors,38.443666,-77.403828
2021 Ford Explorer XLT,$44995,Zeigler Ford of Lowell,42.937306,-85.316312
2015 Chevrolet Corvette Stingray,$48900,Bud's Chevrolet Buick,40.55525432430205,-84.40989268054916
2018 Audi SQ5 3.0T Premium Plus,$46500,AutoMax Preowned Framingham,42.2988385,-71.3973376
2017 Jeep Grand Cherokee Trailhawk,$32500,Tasca Ford ,41.819675,-71.339223
2019 Honda CR-V LX,$26776,Honda North,42.5973317,-70.963243
2018 Ford Escape Titanium,$26000,Webb Ford,41.53510579591836,-87.47105591836736
2016 Land Rover Range Rover ,$62950,Napleton's River Oaks Chrysler Jeep Dodge RAM,41.5661277,-87.5587877
2019 Audi S4 3.0T Premium Plus,$53905,Fletcher Jones Audi,41.9104107,-87.66595996457052
2019 Acura RDX A-Spec,$37750,McGrath Acura of Chicago,41.905068549999996,-87.65892337481178
2019 Toyota Camry LE,$21905,Zeigler Buick GMC of Lincolnwood,42.0069334,-87.71255550201681
2013 Jeep Wrangler Unlimited Sahara,$29500,Elite Motors,42.361645,-87.875787
2019 Honda CR-V EX-L,$33425,McGrath City Honda,41.9235511,-87.8019969
2013 Lexus LS 460 Base,$34955,Napleton Mazda of Libertyville,42.268398315068495,-87.95013576712329
2015 Chevrolet Tahoe LTZ,$46888,Libertyville Chevrolet,42.27172532,-87.95109065000001
2017 Lexus LX 570 Base,$66500,Napleton Cadillac Libertyville,42.269964488372096,-87.95048030232559
2018 GMC Acadia Denali,$38990,City Chevrolet of Grayslake,42.33837351148847,-88.02030430666584
2020 BMW X7 xDrive40i,$86988,McGrath Lexus of Westmont,41.810471804597704,-87.9593261724138
2020 Kia Telluride SX,$53995,Boucher Cadillac of Waukesha,43.027275020986195,-88.19066209034082
2019 Subaru Ascent Limited 7-Passenger,$37667,Audi Naperville,41.76587155,-88.18443167615875
2018 Ford Mustang GT Premium,$43472,Huntersville Ford,35.405626,-80.8542844
2019 Ford Mustang GT,$40490,Mungenast St. Louis Honda,38.5541275,-90.4070336
2017 Mercedes-Benz GLS 450 Base 4MATIC,$40995,United BMW,34.06715375,-84.31776349776027
2019 Chevrolet Equinox 1LT,$23989,EchoPark Automotive Atlanta (Duluth),33.9580087,-84.1211063
2017 Mercedes-Benz GLS 450 Base 4MATIC,$39995,Pugmire Lincoln,33.9506836,-84.5206051
2018 Lexus GX 460 Base,$45997,Luther Cadillac,45.010976224489795,-93.18219920408163
2018 Toyota Highlander XLE,$31985,Carlson Toyota,45.205738269124154,-93.35942831037555
2020 Chevrolet Malibu LT,$22371,Bob Brown Buick GMC,41.7028832,-93.5940112
2018 GMC Yukon Denali,$52999,Royal Automotive,33.4671935,-86.821937
2020 Ford F-150 XLT,$42480,Honda of Ocala,29.1530056,-82.1823724
2020 Hyundai Palisade Limited,$49900,Red Hoagland Hyundai,27.9830861,-81.6789496
2017 Land Rover Range Rover 3.0L Supercharged HSE,$69990,Wilde Jaguar Land Rover Sarasota,27.26898514285714,-82.47312628571429
2019 BMW X5 xDrive40i,$60981,Audi Fort Lauderdale,26.1370669,-80.1360112
2013 Land Rover Range Rover Evoque Pure,$17495,Sport Cars Miami,25.9500019,-80.1480542
2013 BMW 328 i,$10995,Discount Auto Sales of America,25.904542999999997,-80.2442543
2018 Subaru WRX Limited,$19900,Lone Star Auto,33.04254715250486,-96.99388975457322
2019 BMW 430 Gran Coupe i,$27900,AutoSavvy Fort Worth,32.836924,-97.311305
2012 Dodge Charger SXT,$5500,Texas Best Deal Autos,29.9618694,-95.4215255
2018 Honda Accord Touring 2.0T,$26991,West Point Lincoln,29.7847366,-95.5442596
2018 Honda Civic EX-T,$22739,EchoPark Automotive Houston Southwest Freeway,29.672606199999997,-95.54983764932373
2018 Audi Q5 2.0T Tech Premium,$37949,Rocky Mountain Eurosport Parker,39.5378081,-104.76644112955347
2018 Toyota Tacoma TRD Off Road,$35111,Stevinson Toyota West,39.7321414,-105.1655499
2015 Honda CR-V Touring,$23488,INFINITI of San Antonio,29.55038,-98.585144
2020 RAM 1500 Laramie,$57093,Melloy Dodge RAM,35.18706160027061,-106.66190630890647
2019 Honda Pilot Elite,$33750,NexGen Motors,40.31516272997529,-111.70277525705565
2012 Jeep Grand Cherokee Limited,$14991,Audi North Scottsdale,33.647241550000004,-111.92658499288089
2019 Nissan Sentra SV,$17933,Larry H. Miller Nissan Mesa,33.4342834,-111.87163702942838
2018 BMW M3 Base,$89700,Porsche Chandler,33.2911607,-111.79066797093583
2015 Lexus RX 350 Base,$28300,Earnhardt Lexus,33.50931,-112.063806
2017 Honda Ridgeline RTL,$33444,Horne Mazda Avondale,33.459892350000004,-112.28893718340117
2016 Acura MDX 3.5L w/Technology Package,$28998,BMW of Bellevue,47.631655755102045,-122.18042251020408
2019 Chevrolet Silverado 2500 LTZ,$70879,Pierre Chevrolet,47.7113183,-122.3002547
2017 Jeep Compass Sport,$18922,Giant Chevrolet,36.3263526,-119.2783889
2018 BMW 330 i,$31999,BMW of Monrovia,34.1373528,-117.98715253479537
2018 BMW M550 i xDrive,$53999,BMW of Monrovia,34.1373528,-117.98715253479537
2018 Land Rover Range Rover Sport 3.0L Supercharged HSE,$65350,Jaguar Land Rover Newport Beach,33.6240302,-117.8795981
2013 BMW X3 xDrive28i,$12999,Karplus Warehouse Inc.,34.2732603,-118.4297149
2019 Subaru Legacy 2.5i,$22952,Mercedes-Benz of Stevens Creek,37.3220719,-121.98167831173103
2017 Lincoln MKC Premiere,$20970,Liberty Ford Canton,40.80081552883451,-81.38789718148804
2016 Chevrolet Tahoe LTZ,$31995,BrokersAndSellers.com,42.269736775510204,-83.23445826530613
2020 Jeep Compass Latitude,$24999,Armory Chrysler Dodge Jeep Ram FIAT,42.682365250000004,-73.79361922583992
2017 BMW X3 xDrive28i,$26991,DCH Wappingers Falls Toyota,41.5804394,-73.90951799620925
2019 Jeep Grand Cherokee Limited,$38855,Hertrich Chrysler Dodge Jeep Ram of Elkton,39.60396689028437,-75.79527255395217
2018 Lexus ES 350 Base,$32488,Ourisman Lexus,39.10879116705059,-77.15952770108233
2019 BMW M550 i xDrive,$63995,J & S Autohaus,40.2469892184782,-74.76714923224529
2013 Porsche Panamera 4,$28995,AMKO Auto of Laurel,39.10108309985811,-76.8225561887286
2020 Cadillac Escalade ESV Luxury,$84995,Audi Tysons Corner,38.9314534,-77.24111622957997
2017 Mercedes-Benz S-Class S 550 4MATIC,$50444,Auto Buying Service,38.87139250929483,-77.2369953408023
2015 Mercedes-Benz S-Class S 63 AMG,$68995,Auto Buying Service,38.87139250929483,-77.2369953408023
2018 BMW X3 xDrive30i,$36980,Queens Auto Mall,40.592756,-74.09401566666666
2019 Nissan Maxima 3.5 SR,$35500,Nissan North,40.1093349,-83.0167399
2018 BMW 430 Gran Coupe i xDrive,$24550,Jamaica 26 Motors,40.7133325,-73.7647743
2018 Audi Q5 2.0T Tech Premium,$32450,26 Motors Long Island,40.70805365,-73.68835683202805
2018 Mercedes-Benz C-Class C 300 4MATIC,$24590,Certified Luxury Motors of Valley Stream,40.668702,-73.7140318
2018 Chevrolet Suburban LT,$47895,East Hills Chevrolet of Freeport,40.6568010642374,-73.584173678813
2018 Toyota Camry XSE,$26995,Autos Direct of Fredericksburg - Lafayette,38.25719675,-77.49563237439313
2017 Hyundai Elantra SE,$19990,Lucky Line Motors,38.27315,-77.4928900881646
2018 Chevrolet Cruze LT,$21895,Jeff Schmitt Nissan,39.708818,-84.025012
2019 Volkswagen Golf GTI 2.0T SE,$32959,Copeland Chevrolet,42.05741034693878,-71.06647436734693
2002 Porsche 911 Carrera,$37394,Checkered Flag Audi - Porsche,36.8435561,-76.07072285323034
2020 Jeep Grand Cherokee Limited,$46975,Palmen Chrysler Dodge Jeep RAM of Racine,42.719537,-87.89487051675978
2015 Lexus RX 350 Base,$29500,"International Autos Jaguar, Land Rover, Subaru, Volvo Cars",41.6018558933616,-87.81644209718614
2013 Chevrolet Suburban 1500 LTZ,$27483,Arlington Heights Buick GMC,42.139033,-87.99563136734695
2018 Toyota 4Runner SR5 Premium,$37625,Toyota of Brookfield,43.087338653465345,-88.16566735148514
2008 Porsche Cayenne S,$14999,Excalibur Auto Sales,42.1368164,-88.0185691
2015 INFINITI QX80 Base,$34555,Auto's of Chicago,41.80709,-88.04309785000001
2016 Mercedes-Benz C-Class C 300,$24985,Alpha Luxury Motors,41.809404,-87.9978226
2004 INFINITI FX35 ,$6490,Auto House Motors,41.808277675675676,-88.01620405405404
2015 Porsche Panamera 4,$43993,Star Motor Sales,41.80810803358742,-88.02756030535805
2021 GMC Sierra 1500 AT4,$59900,Biggers Chevrolet,42.0294376,-88.237914
2018 Toyota RAV4 ,$30453,Bergstrom Kia of Appleton,44.2617641,-88.4257667
2017 Jeep Wrangler Unlimited Sahara,$42915,Honda of Indian Trail,35.051240140931505,-80.62034021464189
2017 Jeep Wrangler Unlimited Sport,$36499,Brentwood Auto Brokers,36.196174,-86.50791385714285
2018 Jeep Grand Cherokee Limited,$35589,EchoPark Automotive Nashville,36.19161435,-86.80099718552276
2017 Ford F-150 Lariat,$39490,ALM Mall of GA,34.092711297339356,-84.0060450095604
2020 Acura MDX 3.5L w/Technology Package,$46499,Shottenkirk Chrysler Dodge Jeep RAM,34.25894578459125,-84.46639807262622
2019 Chevrolet Silverado 1500 RST,$47250,Napleton's Mid Rivers Chrysler Jeep Dodge RAM Maserati,38.79665455,-90.5895443887266
2019 Chevrolet Traverse LT Cloth,$31816,BMW of West St. Louis,38.5928242,-90.56074
2019 Toyota Camry SE,$18900,Atlanta Best Used Cars,33.9444787,-84.2044454
2018 Volvo S90 T5 Momentum,$32998,Dyer & Dyer Volvo Cars,33.9105437,-84.2895035
2014 Toyota Land Cruiser V8,$48950,Persichetti Motorsports,33.90309424259481,-84.49846698890484
2020 Acura MDX 3.5L w/Technology Package,$47791,Nalley Acura,33.9506836,-84.5206051
2019 Chevrolet Silverado 1500 LT,$40000,Milledgeville Chrysler Dodge Jeep Ram ,33.119949763616866,-83.26175191521662
2018 Honda CR-V EX-L,$26599,Walser Honda,44.73566362698626,-93.28527546821121
2014 Chevrolet Corvette Stingray Z51,$51786,Birmingham Luxury Motors,33.518858,-86.781304
2020 Acura MDX 3.5L w/Technology Package,$41711,Gary Yeomans Ford,29.212459,-81.1029603652405
2018 Mercedes-Benz E-Class E 400,$44999,Off Lease Only Orlando,28.451285872310788,-81.27531080544969
2018 Ford Edge Titanium,$27066,Sunrise Ford Volkswagen,27.363870400499483,-80.3260397598201
2017 Land Rover Range Rover 3.0L Supercharged HSE,$81990,Wilde Jaguar Land Rover Sarasota,27.26898514285714,-82.47312628571429
2019 Honda CR-V EX-L,$30032,Coconut Point Honda,26.4327293,-81.8106088
2017 Hyundai Elantra SE,$12499,Florida Fine Cars Miami,25.9701571,-80.20503982426982
2018 Toyota Tundra Limited,$18800,AE of Miami,25.827018099999997,-80.24134186080965
2019 Alfa Romeo Giulia Base,$29880,Autos of Dallas,33.015647,-96.78298523817966
2014 Nissan Maxima S,$16995,DallasLeaseReturns.com,32.943485586525235,-96.82704466387067
2017 Porsche 718 Cayman Base,$56987,Mercedes-Benz of Houston Greenway,29.7299867,-95.456975
2018 Honda Civic EX-T,$22369,EchoPark Automotive Houston Southwest Freeway,29.672606199999997,-95.54983764932373
2017 Mercedes-Benz GLS 450 Base 4MATIC,$47991,Jaguar Land Rover West Houston,29.7772647,-95.8747548
2018 Mercedes-Benz GLS 450 Base 4MATIC,$55879,Jaguar Land Rover West Houston,29.7772647,-95.8747548
2018 BMW X5 xDrive35i,$55488,BMW of Austin,30.442428,-97.7464522
2020 Toyota Tacoma TRD Off Road,$46745,Larry H. Miller Nissan Mesa,33.4342834,-111.87163702942838
2018 Ford F-150 Platinum,$50995,Ford Country,36.04739641976524,-115.02895691988486
2018 BMW X1 xDrive28i,$30488,Definitive Motors,47.61231314141414,-122.18569017171717
2019 Chevrolet Suburban Premier,$67681,Port Orchard Ford,47.542992571015475,-122.62931283418948
2017 Nissan Altima 2.5 S,$19999,California Motor Trade,33.9399299,-118.1327049
2018 Land Rover Range Rover Sport 3.0L Supercharged HSE,$64360,Major Motor Cars,34.03580647994775,-118.47105430798959
2018 BMW X1 xDrive28i,$31295,BMW of San Francisco,37.770475149999996,-122.41723103614287
2012 Mercedes-Benz E-Class E 350 4MATIC,$14997,INFINITI OF BEACHWOOD,41.4676421,-81.4932714
2013 Lexus LS 460 Base,$29300,Koons Toyota Of Westminster,39.573417402358515,-76.98436552493263
2018 Honda CR-V EX-L,$31200, Serra Mazda Brighton,42.5202176,-83.755741
2020 Kia Telluride SX,$41500,Feretti Motors,40.11257548520132,-75.03330079499067
2020 Ford F-150 XLT,$39998,High Quality Motors,39.014276510204084,-77.37152640816326
2020 Dodge Durango Citadel,$42990,Unique Auto Mall,40.47222,-74.2853569
2018 Audi A5 2.0T Premium Plus,$37987,Weeks Pre-Owned Center,41.3931494,-73.5101231
2017 Lexus IS 300 Base,$28444,Auto Buying Service,38.87139250929483,-77.2369953408023
2019 Toyota Camry XSE,$30860,Tansky Sawmill Toyota,40.0954604,-83.09049288055084
2013 Cadillac SRX Performance Collection,$13995,A Better Way Wholesale,41.512083,-73.0217693
2020 Toyota Corolla LE,$18500,Alpha Motorsports Fredericksburg,38.27208745,-77.4946876
2015 Tesla Model S 85D,$49900,Empire Ford of New Bedford,41.660303850000005,-70.94219018166403
2019 INFINITI QX80 Luxe,$50750,Napleton Kia of Fishers,39.98177,-86.006261
2012 Volvo S60 T5,$14300,Wheel Deal Auto Sales,36.9157208,-76.2362908
2013 Ford Fusion SE,$17495,Frank Boucher Chevrolet Cadillac of Racine,42.719537,-87.89487716480447
2016 Ford F-150 XLT,$34872,Andrew Chevrolet,43.11892,-87.929021
2018 Dodge Journey GT,$26250,Carlotz Highland Park,42.156968428651375,-87.80518599699374
2019 Jeep Grand Cherokee Limited,$39593,Palmen Motors of Kenosha,42.5661994,-87.85527
2019 Acura TLX Technology & A-Spec,$31797,McGrath Acura of Libertyville,42.253557,-87.946837
2011 Audi A6 3.0 Prestige quattro,$9950,Chicago Fine Motors,41.80574,-87.830444
2018 Ford Escape SEL,$21900,Napleton Off Lease,42.14231660649954,-88.00458957133496
2017 Toyota RAV4 LE,$24354,Oakbrook Toyota in Westmont,41.81044996551724,-87.96030720689654
2015 Mazda CX-9 Grand Touring,$20592,Napleton Mazda of Naperville,41.764783300000005,-88.19286434799568
2018 Hyundai Santa Fe SE,$23345,Bergstrom Kia of Appleton,44.2617641,-88.4257667
2018 Ford F-150 Lariat,$51403,Kunes Ford Lincoln of Delavan,42.627488,-88.63060322891566
2017 Chevrolet Camaro 2SS,$43000,Lake Norman Chrysler Dodge Jeep Ram,35.488196,-80.875778
2013 Land Rover Range Rover Sport HSE,$22995,Godspeed Motors,35.36206114797674,-80.8356139400568
2011 BMW 128 i,$14995,Auto Max,36.22134873987058,-86.55984218514445
2017 Jeep Wrangler Unlimited Sport,$37502,Franklin Chrysler Dodge Jeep Ram,35.91513595,-86.83586169640802
2019 Lexus RX 350 ,$43389,EchoPark Automotive Augusta Delivery Center,33.512571,-82.046064
2018 Jeep Grand Cherokee Limited,$33500,Ed Napleton Honda St. Peters,38.7993663,-90.5997147544692
2016 Chevrolet Corvette Stingray,$55990,Carl Black Hiram,33.89153261665543,-84.75564497387789
2012 GMC Yukon Denali,$22995,Morrie's Mercedes Benz of St. Paul,45.0280912,-93.0464465
2017 Porsche Macan S,$44999,Jaguar Land Rover Minneapolis,44.9692578,-93.3099854
2018 Jeep Grand Cherokee High Altitude,$38799,Walser Chrysler Jeep Dodge RAM,44.9243289,-93.4267899
2018 Cadillac XT5 Luxury,$38157,BMW of Minnetonka,44.971436343797144,-93.47865389844314
2019 Chevrolet Silverado 1500 LT,$36500,Five Star Chevrolet Cadillac Buick GMC,32.6182953,-83.6670186
2018 Dodge Challenger GT,$24995,LUXE Automotive,41.212401,-96.008277
2017 Chevrolet Tahoe LT,$36877,Murray Chrysler Dodge Jeep RAM,29.927539611576666,-82.12255470244399
2018 Dodge Challenger R/T,$36900,Mac Haik Flowood,32.33227058441558,-90.13096632767233
2021 Toyota Supra 3.0 Premium,$61691,Stadium Toyota,27.9856133,-82.5054062
2015 Lexus RX 350 Base,$21991,INFINITI Stuart,27.15412743108823,-80.21950374496294
2017 Mercedes-Benz GLS 450 Base 4MATIC,$44999,Florida Fine Cars Margate,26.2579287,-80.1926189
2020 Dodge Challenger SRT Hellcat,$89964,Hopper Motorplex,33.20568181609209,-96.63795381495724
2016 Honda Odyssey Touring,$23988,David McDavid Honda of Frisco,33.1413904,-96.8383371
2015 Jeep Grand Cherokee Overland,$27895,Richardson Chrysler Jeep Dodge Ram,32.96560125,-96.72420950788853
2020 Ford Explorer Platinum,$54000,Five Star Ford,32.84072679142802,-97.24248561187851
2020 Dodge Challenger SRT Hellcat,$75100,Honda of Fort Worth,32.7255631571698,-97.47939103272638
2020 Lincoln Aviator Reserve RWD,$50000,Zeck Ford Itasca ,32.1679494,-97.13554868053919
2018 Honda Accord LX,$24060,John Eagle Honda of Houston,29.9287644,-95.6391205
2020 Lexus GX 460 Base,$58991,Nxcess Motorcars,29.725290118070614,-95.48092294888107
2019 Toyota RAV4 XLE,$32337,Sterling McCall Lexus,29.7001794,-95.5176286
2019 Buick Enclave Avenir,$39902,Brown Automotive Group,35.16593255555556,-101.86627370370371
2020 Subaru Outback Premium,$30999,EchoPark Automotive Thornton,39.885042,-104.958125
2016 GMC Yukon XL Denali,$57151,O'Meara Ford,39.88536037195016,-104.99221872154418
2020 Ford Fusion SEL,$20899,AutoNation Honda 104,39.885298,-105.024861
2015 Jeep Grand Cherokee Limited,$24998,AutoNation Subaru West,39.7281171,-105.183707
2011 Lexus LX 570 Base,$42877,Bell Lexus North Scottsdale,33.65409525,-111.92369984510115
2018 BMW M3 Base,$66988,House of Cars,33.4703181,-111.9261309
2020 RAM 1500 Limited,$63888,Auto House Phoenix,33.58173011557789,-112.26379963819096
2015 GMC Yukon Denali,$52000,Yates Buick GMC,33.454784700000005,-112.35695435023028
2019 Honda Ridgeline RTL-T,$38500,Yates Buick GMC,33.454784700000005,-112.35695435023028
2019 Ford F-150 Lariat,$44800,Advantage Auto Direct,47.4124549,-122.2411458
2018 Tesla Model 3 Long Range,$58995,Boyko Motors,47.29157565,-122.31397725
2017 Audi A4 allroad 2.0T Premium,$38000,Victorville Mitsubishi,34.50880982348777,-117.32589840600023
2018 Toyota Mirai Base,$16838,Toyota Santa Monica,34.0168077,-118.4946966
2020 GMC Yukon XL Denali,$57799,AutoNation Subaru Roseville,38.75219351959674,-121.25739524920706
2018 GMC Yukon XL Denali,$61506,Sellers Buick GMC,42.46851556792426,-83.421136874111
2019 Porsche Cayenne Base,$65985,Sloane Porsche Audi,40.2645169,-75.1302948
2018 Volvo XC60 Inscription,$45800,Stillman Volvo Cars,39.9406695,-75.5908728
2019 BMW M550 i,$64886,BMW of the Main Line,40.005397776889026,-75.23203323710798
2012 Cadillac CTS-V Base,$37500,National Motors of Ellicott City,39.284683799999996,-76.8078214797329
2021 Toyota Highlander XSE,$47155,Coughlin Toyota,40.041164,-82.427176
2014 Nissan Maxima SV,$15995,Central Group Inc.,40.22570393867883,-74.60559777781265
2020 Dodge Durango Citadel,$42990,Unique Auto Mall,40.47222,-74.2853569
2021 Toyota Highlander XSE,$46498,Performance Chrysler Jeep Dodge Ram Delaware,40.257810416232644,-83.06353715495283
2020 Lexus GS 350 F Sport,$46990,Lexus of Brooklyn,40.636591749999994,-74.01991467264568
2017 Ford Focus RS Base,$36500,FC Auto,38.891739,-77.186019
2019 BMW M550 i xDrive,$52980,Queens Auto Mall,40.592756,-74.09401566666666
2015 Dodge Challenger R/T Scat Pack,$39995,Kings Point Auto,40.8071022,-73.73595694804945
2011 BMW 335 i,$23988,Fitzgerald Mazda of Annapolis,38.980714899999995,-76.52570630101556
2018 BMW 340 i xDrive,$37890,Certified Luxury Motors,40.774935299999996,-73.7318052
2020 Honda Civic LX,$22000,Alpha Motorsports Manassas,38.756989,-77.456908
2019 Jeep Grand Cherokee Altitude,$42844,East Hills Chrysler Jeep Dodge RAM,40.810056,-73.626999
2019 Honda Passport Touring,$37777,Kia of Huntington,40.831203,-73.394905
2016 Acura MDX 3.5L,$27288,Balise Chevrolet Buick GMC,42.08634585,-72.58122275382694
2017 Lexus ES 350 Base,$33950,Radley Cadillac,38.3017656,-77.4815377
2018 Toyota 4Runner Limited,$42882,Lexus of Watertown,42.36441495,-71.16785380179593
2018 Acura MDX 3.5L,$36499,Walt Sweeney Ford,39.12926,-84.606182
2013 Hyundai Veloster Base,$12762,Bob Rohrman Hyundai,40.41934235,-86.85882578381097
2016 Land Rover Range Rover Sport Supercharged HSE,$47500,Advantage Toyota of River Oaks,41.6010821,-87.5581579
2019 Acura MDX 3.5L,$37795,McGrath Acura of Chicago,41.905068549999996,-87.65892337481178
2019 Lincoln Nautilus Reserve,$47798,Heiser Ford Lincoln,43.11897309446689,-87.93196089878293
2015 Porsche Macan Turbo,$44900,Champion Motorsports,41.66140822741286,-87.75253732625437
2020 Kia Telluride EX,$48756,Gordie Boucher Nissan of Greenfield,42.96870697114463,-88.04782744848431
2019 Acura MDX 3.5L w/Technology Package,$43797,McGrath Acura of Libertyville,42.253557,-87.946837
2019 Chevrolet Silverado 1500 Custom Trail Boss,$41884,Advantage Chevrolet,41.7785718,-87.86640532271846
2021 Hyundai Palisade SE,$37500,Arlington Acura in Palatine,42.135980967626175,-88.07480165251582
2013 Porsche Cayenne GTS,$39995,Highline Auto Sales,41.749809476510066,-87.93793129530201
2018 Mercedes-Benz AMG GLC 43 Base 4MATIC,$53500,Mercedes-Benz of Westmont,41.810068290322576,-87.97232948387096
2014 Mercedes-Benz E-Class E 350 4MATIC,$25999,Oakbrook Toyota in Westmont,41.81044996551724,-87.96030720689654
2020 Porsche 911 Carrera 4S,$162900,Ultimo Motors West,41.8025706,-88.158111
2015 Ford Taurus SHO,$21995,McGrath Honda of St. Charles,41.91726119515386,-88.29872257723787
2018 INFINITI QX30 Premium,$28900,Lake Norman INFINITI,35.47941807010701,-80.87654105666552
2015 Honda Accord EX-L,$20995,Schimmer Chevrolet Buick,41.556293,-89.12764
2020 Kia Telluride EX,$47900,Keith Hawthorne Ford of Belmont,35.25568629292321,-81.0432697852705
2016 Jeep Grand Cherokee Limited,$25600,O'Brien Nissan of Bloomington,40.4635894,-88.9580536
2016 Nissan Maxima 3.5 SL,$21500,TLC Motors,34.908514,-81.982107
2009 Toyota Camry LE,$8999,Angel Motors Inc.,35.9871660524633,-86.52318693548345
2019 BMW X4 M40i,$55995,United BMW,34.06715375,-84.31776349776027
2016 Toyota 4Runner Limited,$35260,Dan Deery Toyota,42.5131939689441,-92.44729981987578
2009 Acura TL Technology,$6990,MOTOR MAX,33.2666205,-84.2897395
2018 Toyota Highlander XLE,$36819,Jeff Belzer's,44.638331386934674,-93.21770346733668
2019 Chevrolet Silverado 1500 LT,$43500,Five Star Chevrolet Cadillac Buick GMC,32.6182953,-83.6670186
2018 Toyota Camry SE,$21996,The Internet Car Lot,41.207554,-96.068732
2020 Hyundai Palisade Limited,$47900,Red Hoagland Hyundai,27.9830861,-81.6789496
2019 Alfa Romeo Stelvio Ti Sport,$37490,Bomnin Chevrolet Dadeland,25.6919556,-80.3036615
2018 Toyota RAV4 LE,$25747,Toyota of Richardson,32.963941000000005,-96.72589027863128
2020 Toyota RAV4 XLE,$34274,Toyota of Richardson,32.963941000000005,-96.72589027863128
2020 Toyota Camry SE,$25998,West Kendall Toyota,25.6391075,-80.4159354
2017 Toyota Tundra 1794,$45995,Bosco Auto Group,33.071457,-97.050501
2019 BMW X5 xDrive40i,$54780,Advantage BMW Midtown,29.747156734693878,-95.36863936734693
2018 Toyota Tacoma TRD Off Road,$49150,Groove Ford,39.5951125336473,-104.87206743594604
2013 Audi allroad 2.0T Premium Plus quattro,$20999,AutoNation USA Denver Broadway,39.61633904999999,-104.98845436776115
2019 RAM 1500 Laramie,$44988,San Marcos Toyota,29.8610215,-97.9486421
2018 Ford Edge SEL,$27500,Courtesy Kia,33.3895509,-111.69616224848036
2020 Toyota Tundra SR5,$52311,Big Two Toyota of Chandler,33.288034499999995,-111.7915573646027
2018 Jeep Grand Cherokee Limited,$34981,AutoNation USA Phoenix,33.6400891,-112.0936343
2019 Ford F-150 Lariat,$41200,Showcase Honda,33.508390500000004,-112.05279568092652
2018 BMW X1 xDrive28i,$31998,AutoNation Ford Bellevue,47.613197676767676,-122.1857136161616
2015 Porsche 911 Carrera,$79888,Maserati of Anaheim Hills/Alfa Romeo of Anaheim Hills,33.8722454,-117.74200259501532
2019 BMW 540 i,$48900,California Beemers,33.674806,-117.9201355
2003 Chevrolet Corvette ,$19998,AutoNation Subaru Roseville,38.75219351959674,-121.25739524920706
2018 Lincoln Navigator Reserve,$75982,Gilroy Chevrolet Cadillac,36.99776976507879,-121.55784160023653
2020 Jeep Grand Cherokee Altitude,$38500,Suburban Chrysler Dodge Jeep RAM of Garden City,42.3259117,-83.36416259947467
2019 Ford F-150 XLT,$43500,Koons Ford of Baltimore,39.31422945,-76.75106527623429
2019 Jeep Grand Cherokee Limited,$34750,Heritage Chrysler Jeep Dodge RAM Parkville,39.3906003,-76.52778898537787
2014 Lexus GS 350 Base,$23358,Ourisman Lexus,39.10879116705059,-77.15952770108233
2019 BMW 750 i xDrive,$63700,BM Motorcars,40.6030364892353,-74.26910110147625
2018 BMW X5 xDrive35i,$40995,BM Motorcars,40.6030364892353,-74.26910110147625
2010 Acura TSX 3.5,$10499,Magic Auto Sales,40.85613939107994,-74.04921997290649
2016 Chevrolet Corvette Stingray,$49500,Koons of Tysons Chevrolet Buick GMC,38.91931235,-77.2337504282871
2014 Porsche 911 Carrera S,$85500,Manhattan Motorcars Inc.,40.7665754,-73.9946974
2017 BMW 440 i xDrive,$34997,Weeks Pre-Owned Center,41.3931494,-73.5101231
2018 Mercedes-Benz AMG GLC 43 Base 4MATIC,$39750,26 Motors Queens,40.7408024,-73.8992192
2019 Nissan Rogue SL,$28530,Nissan North,40.1093349,-83.0167399
2018 Audi Q7 3.0T Premium Plus,$43990,Biener Audi,40.7848846,-73.7114517412161
2020 Nissan Rogue Sport S,$24000,Bruce Bennett Nissan,41.260657,-73.436041
2021 Toyota Supra 3.0,$58888,Penn Toyota,40.810056,-73.626999
2018 Toyota RAV4 LE,$23900,Millennium Chevrolet,40.71355535,-73.62894544466175
2017 Acura MDX 3.5L w/Technology Package,$31500,Koons Kia,38.64469253724783,-77.26482715914565
2018 BMW 530 i xDrive,$38500,Koons Woodbridge Hyundai,38.63475513621033,-77.27275985624036
2018 Mercedes-Benz AMG E 63 S 4MATIC,$93500,Mercedes-Benz of Fredericksburg,38.311706,-77.505227
2017 Toyota Corolla SE,$17990,Lucky Line Motors,38.27315,-77.4928900881646
2019 Honda CR-V LX,$28000,Cambridge Honda,42.3836714,-71.14158267237954
2018 Genesis G80 3.8,$32990,Winners Circle Chrysler Dodge Jeep Ram of Hampton,37.02791535,-76.4286107901172
2016 Ford Explorer XLT,$24500,TruWorth Auto,39.92682283333333,-86.11483183333333
2018 Acura RDX Technology Package,$29400,McGrath Acura of Chicago,41.905068549999996,-87.65892337481178
2021 Porsche Macan Base,$64230,The Porsche Exchange,42.19658429618768,-87.83074533431085
2017 Acura MDX 3.5L w/Technology Package,$26795,Muller Honda,42.161565585443576,-87.80828498624281
2019 Lexus RX 350 350 W/NAVIGATION,$47000,Lexus Of Highland Park,42.208313366666665,-87.83838816666666
2017 Ford F-150 Lariat,$44000,Webb Chevy,41.72112607314471,-87.74094140134459
2018 Tesla Model S P100D,$78000,Arlington Nissan,42.13920853761236,-87.99812986752877
2016 Land Rover Discovery Sport HSE,$24995,Ed Napleton Acura Kia,41.9131952,-87.9406305
2019 Volkswagen Atlas 3.6L SEL,$42873,Larry Roesch Dodge Chrysler Jeep RAM,41.9232634,-87.9636418
2017 BMW M2 Base,$40040,BMW of Orland Park,41.6009253,-87.8721789
2018 Honda Clarity Plug-In Hybrid Touring,$25700,Bob Rohrman Schaumburg Ford,42.050197636723944,-88.05948214416836
2019 Acura MDX 3.5L,$39589,EchoPark Automotive Augusta Delivery Center,33.512571,-82.046064
2019 Acura RDX Base,$36789,EchoPark Automotive Augusta Delivery Center,33.512571,-82.046064
2018 Genesis G80 5.0 Ultimate,$37498,Rick Case Hyundai of Roswell,34.05621455,-84.32929696995805
2018 Chrysler Pacifica Limited,$34790,Drive Appeal New Hope,45.032743,-93.378062
2018 Jeep Grand Cherokee Limited,$34975,Apple Chrysler Dodge Jeep Ram of Shakopee,44.7759377,-93.5082101
2017 Jeep Wrangler Unlimited Sport,$32889,AutoNation Volkswagen Columbus,32.552089949999996,-84.94288216552812
2018 Jeep Grand Cherokee Limited,$34864,Paynesville Chevrolet Buick,45.369084,-94.710686
2009 BMW 535 i xDrive,$7999,Cartina,27.96636827093321,-82.36593580792812
2019 BMW X5 xDrive40i,$58681,Audi Fort Lauderdale,26.1370669,-80.1360112
2020 Toyota Camry SE,$25990,AutoNation Ford Miami,25.895613,-80.2919301
2017 Toyota Tundra 1794,$46338,Sport City Toyota,32.86636167189277,-96.66386573695038
2018 Land Rover Range Rover 5.0L Supercharged,$85996,"Certified Autoplex, Inc.",32.953086,-96.855623
2018 BMW M2 Base,$49991,BMW of Dallas,32.8349377,-96.8287369353024
2014 Lexus GX 460 Base,$33917,Lone Star Toyota of Lewisville,33.022902232608644,-96.98614849067039
2018 BMW 340 i,$44979,BMW of Austin,30.442428,-97.7464522
2013 Chevrolet Silverado 1500 LT,$29949,Rocky Mountain Eurosport Parker,39.5378081,-104.76644112955347
2019 Ford F-150 Lariat,$37999,AutoNation Dodge Ram Arapahoe,39.595115812080536,-104.8644664966443
2014 Lexus GX 460 Base,$34599,AutoNation Buick GMC Park Meadows,39.564815,-104.89685
2016 BMW X1 xDrive 28i,$26292,Land Rover Denver,39.6044901,-104.9871297515094
2018 BMW X5 M Base,$77538,Schomp BMW,39.5599832,-105.00222156365535
2019 Jeep Grand Cherokee Altitude,$45930,AutoNation Chrysler Jeep West,39.7301534,-105.173464
2019 RAM 1500 Laramie,$37011,Peterson Chrysler Dodge Jeep Ram,43.601983,-116.513098
2013 Honda Pilot EX,$18444,Steves Hometown Motors,44.24810464,-116.9582206
2018 Jeep Grand Cherokee Limited,$33700,AutoSavvy Gilbert,33.36789075,-111.8410562448864
2019 Jeep Grand Cherokee Limited,$35000,Courtesy Volvo Cars of Scottsdale,33.49381325,-111.88952253482171
2013 BMW 335 i,$22573,Bill Luke Chrysler Jeep Dodge RAM,33.50857405,-112.11017952303409
2020 RAM 1500 Big Horn,$48800,Yates Buick GMC,33.454784700000005,-112.35695435023028
2021 Ford F-350 Platinum,$88850,Corwin Ford Reno,39.49036166378516,-119.7889897748163
2020 BMW M5 Base,$95490,Audi Beaverton,45.489252199999996,-122.8180170242679
2019 Chevrolet Corvette Stingray,$56017,STG Auto Group of Montclair,34.06627297959184,-117.68946071428572
2015 Chrysler 300 Limited,$19999,BabaCars,37.96124224489796,-121.27313918367346
2018 RAM 1500 Express,$34997,Humes Chrysler Jeep Dodge RAM,41.952535185622864,-79.99241216053869
2016 BMW 320 320i xDrive,$14999,Empire Motors,41.4191979,-81.71423694925943
2019 Ford Explorer XLT,$30500,Elder Ford,42.541115142857144,-83.10755140816327
2018 Lincoln MKC Premiere,$25000,Jack Demmer Lincoln,42.306885449999996,-83.2402816475684
2016 Toyota Highlander XLE,$30977,Heritage Hyundai Towson,39.4065085,-76.6057756
2019 Jeep Grand Cherokee Limited,$34750,Heritage Chrysler Jeep Dodge RAM Parkville,39.3906003,-76.52778898537787
2018 Honda Accord EX-L 2.0T,$29931,Mike Piazza Honda,40.17537285768793,-74.88655784248391
2014 Lexus GX 460 Base,$31995,Mercedes-Benz of Tysons Corner,38.928703999999996,-77.2432584642361
2018 Mercedes-Benz GLC 300 Base 4MATIC,$38990,Lexus of Brooklyn,40.636591749999994,-74.01991467264568
2016 Toyota 4Runner Limited,$37040,DARCARS Lexus of Greenwich,41.0219299,-73.6268212
2019 Toyota Corolla LE,$20995,Tri County Pre Owned Superstore,39.95588510204082,-82.77052213265306
2014 Toyota Sequoia Limited,$30994,Drive Direct,40.05829025,-82.95655900767797
2018 Land Rover Range Rover Velar P250 SE R-Dynamic,$42950,26 Motors Long Island,40.70805365,-73.68835683202805
2019 Nissan Rogue SL,$31790,Buckeye Nissan,40.031294866020446,-83.12553764960207
2018 Hyundai Elantra SEL,$16550,Atlantic Hyundai,40.7168056,-73.3194438
2015 Honda Accord EX-L,$18995,Toy Store Auto Sales,42.77771253285896,-71.22637713493914
2013 BMW X5 xDrive35i,$23995,Indy Wholesale Direct,39.928545150000005,-86.23978134906244
2019 Jeep Grand Cherokee Limited,$36566,Southern Dodge Chrysler Jeep Ram Fiat Norfolk,36.8843472,-76.2167063
2018 Nissan Rogue SV,$20400,Paradise Motorsports,38.05649965,-84.46070502074791
2018 Lexus ES 350 Base,$29500,Team Toyota,41.4996076,-87.4710573
2016 Acura MDX 3.5L,$27986,Fields Volvo Cars of Northfield,42.1115819,-87.7761777
2018 Ford Escape SEL,$22950,Hugasian Motors,42.698042,-87.894945
2008 Acura MDX Tech/Entertainment Pkg,$7995,Your Choice Autos Waukegan,42.347405,-87.898485
2018 Mercedes-Benz C-Class C 300 4MATIC,$32415,Autohaus on Edens,42.1221491,-87.7826432
2013 Toyota Land Cruiser V8,$54975,Lux Cars Chicago,42.13895923678212,-87.95648698951632
2020 Land Rover Defender 110 SE,$71983,Arlington Heights Buick GMC,42.139033,-87.99563136734695
2019 Acura TLX V6 Technology & A-Spec,$31590,Joe Rizza Acura,41.60199765245153,-87.81804635469446
2016 BMW X1 xDrive 28i,$25444,Hyundai of Palatine,42.15362149350649,-88.04826136363636
2017 Volvo XC90 T6 Momentum,$31495,Lexus of Arlington,42.13517876311533,-88.08103377478619
2013 Ford Explorer Limited,$15994,Coda Motors,41.743859774916096,-87.93744877491609
2018 Jeep Grand Cherokee Summit,$37616,Bill Kay Chevrolet,41.80261601170377,-88.06305415836455
2016 Ford F-150 XLT,$36990,Lynch Chevrolet Buick GMC,42.707597050000004,-88.23929892643649
2014 BMW X5 xDrive35i,$29495,Conway Imports,41.99939212659542,-88.17049067827047
2015 Cadillac Escalade Premium,$41970,Westgate Chrysler Jeep Dodge RAM,35.900738282862726,-78.76298494831408
2017 Toyota Camry SE,$20744,Anchor Auto Outlet,35.76523865,-78.74417660288626
2015 Toyota 4Runner Limited,$37800,O'Brien Nissan of Bloomington,40.4635894,-88.9580536
2020 Tesla Model Y Performance,$71396,Grayson BMW,35.90115246887843,-84.13873733464905
2017 Jeep Wrangler Unlimited Sport,$45677,Miracle Chrysler Dodge Jeep,36.370546348912846,-86.4836511227905
2018 Volvo S90 T5 Momentum,$33997,North Point Volvo Cars,34.040862,-84.32113124747025
2019 Tesla Model 3 Standard Range Plus,$44994,Mike Rezi Nissan Atlanta,33.9078409,-84.2843701
2018 INFINITI QX80 Base,$45900,Drive A Dream,33.9586902,-84.5261503
2016 Mercedes-Benz S-Class S 550,$41999,AX Auto Inc.,33.755810545454544,-84.47891890909091
2016 Chevrolet Tahoe LT,$39985,Rudy Luther Toyota,44.9692578,-93.3099854
2018 GMC Yukon SLT,$59487,"Matt Saxe Chevrolet Buick, Inc",44.6202871,-93.7508982
2018 GMC Yukon Denali,$56990,Carl Cannon Chevrolet Buick GMC Cadillac,33.79475985,-87.24496291359162
2015 Buick Regal Turbo Premium I,$17041,Mills GM,46.35605955270413,-94.2437791463245
2019 Toyota Camry LE,$19977,Prince of Albany,31.622455,-84.20441003134405
2014 Ford Explorer XLT,$16588,Carfox Auto Sales,28.028976,-82.447031
2001 Cadillac DeVille DHS,$6900,Century Motors Of South Florida,26.2712536,-80.1148253
2019 Kia Optima LX,$21134,Miami Lakes Automall - Chevrolet Kia Dodge Chrysler Jeep Ram Mitsubishi,25.895613,-80.2919301
2020 Toyota Supra 3.0 Premium Launch Edition,$59995,Auto Park Dallas,32.95782412121213,-96.8444346969697
2015 BMW 528 i,$24336,Toyota of Dallas,32.90794125,-96.88946251224019
2018 Kia Sorento LX,$23889,EchoPark Automotive Dallas,32.675492,-97.01603
2019 Ford F-150 XLT,$37000,AutoSavvy Fort Worth,32.836924,-97.311305
2006 Lexus GX 470 ,$14995,Unique Auto Group,29.729703,-95.524995
2018 Jeep Grand Cherokee Limited,$33789,EchoPark Automotive Thornton,39.885042,-104.958125
2017 Toyota Highlander Limited,$31191,North Park Toyota of San Antonio,29.315701,-98.61246315008765
2019 Honda Pilot Elite,$32495,Autolocity Motors,41.20279971755378,-111.97917108603022
2020 Toyota Tacoma TRD Off Road,$37000,Prestman Auto,40.70876535,-111.88781366937964
2020 Ford F-150 XLT,$36000,AutoSavvy Gilbert,33.36789075,-111.8410562448864
2019 Porsche Macan Base,$60000,Certified Benz & Beemer,33.46583,-111.9217886
2018 INFINITI Q50 3.0t LUXE,$34740,Bell Road Mitsubishi,33.6395641,-112.04166891051746
2017 Porsche Macan S,$58700,Porsche Chandler,33.2911607,-111.79066797093583
2020 Ford F-150 XLT,$47990,AutoNation USA Phoenix,33.6400891,-112.0936343
2019 Jeep Grand Cherokee Altitude,$30973,Bill Luke Tempe,33.345967599999994,-111.96899750417242
2018 Toyota Tacoma SR5,$34513,AutoNation Nissan Tempe,33.346519349999994,-111.96770571297297
2021 Land Rover Defender 110 X,$110000,Mercedes-Benz of Chandler,33.325221850000005,-111.97004529764567
2018 Toyota Camry LE,$23416,Larry H. Miller Volkswagen Avondale,33.4596112,-112.28165776007805
2018 Toyota 4Runner Limited,$47134,Marysville Toyota,48.1428709,-122.1838547
2017 GMC Sierra 3500 SLT,$63889,Sunrise Auto Sales,45.4458551,-122.6429291
2014 Land Rover Range Rover Sport Supercharged,$41982,Keyes Audi,34.1635058,-118.4487151
2018 Audi S6 4.0T Premium Plus,$57993,Audi Beverly Hills,34.066942294117645,-118.38501764705882
2018 Mazda CX-5 Touring,$27413,Towne Auto Group Southwestern Blvd,42.7867663,-78.7613424
2017 Volvo XC90 T6 Inscription,$37949,CarShop - Robinson Township,40.4495054,-80.1660146871535
2006 BMW M5 ,$20990,J-Rus Inc.,42.677648761061945,-82.96816505309735
2018 GMC Yukon XL Denali,$60465,Shelton Buick GMC,42.6427634,-83.1320587
2015 Lexus RX 350 Base,$23500,Audi Albany,42.74042035,-73.76118921417353
2012 Porsche 911 991 Carrera S,$83995,Jaguar Land Rover West Chester,39.96585155,-75.52491840080995
2019 BMW M550 i xDrive,$59899,BMW of Ramsey,41.06447448930883,-74.12851309447659
2011 Toyota Highlander Limited,$14495,High Rated Auto Company,39.45923087777778,-76.257852
2015 BMW M3 Base,$42895,Auto Gallery,40.88001376232056,-74.07921367114965
2017 Chevrolet Tahoe Premier,$51999,JBA Chevrolet Mitsubishi,39.16942025,-76.62109275
2018 Audi S5 3.0T Prestige,$51000,Koons of Tysons Chevrolet Buick GMC,38.91931235,-77.2337504282871
2011 Mercedes-Benz G-Class G 55 AMG 4MATIC,$75000,Jaguar Land Rover Manhattan,40.768937,-73.992523
2017 Cadillac Escalade ESV Platinum,$57444,Auto Buying Service,38.87139250929483,-77.2369953408023
2019 BMW X5 xDrive40i,$57499,BMW of Fairfax,38.87357304651162,-77.23659755813954
2019 BMW X5 xDrive40i,$61900,Kelly BMW,40.057534520000004,-82.90735324
2020 Toyota Corolla LE,$21997,Jim McKay Chevrolet,38.85925710336457,-77.30346587784294
2018 Lexus ES 350 Base,$29966,Merlex Auto Group,38.8764803,-77.1087201
2013 Hyundai Genesis Coupe 2.0T Premium,$14500,Drive Direct,40.05829025,-82.95655900767797
2019 Acura TLX V6,$30535,Plaza Auto Mall,40.6177464,-73.9455131316282
2018 BMW X2 sDrive28i,$31994,BMW of Alexandria,38.80802355,-77.12884097765054
2018 BMW X5 M Base,$48450,Jamaica 26 Motors,40.7133325,-73.7647743
2019 BMW 530 i xDrive,$24750,26 Motors Long Island,40.70805365,-73.68835683202805
2015 BMW X5 xDrive35i,$22895,Certified Luxury Motors of Valley Stream,40.668702,-73.7140318
2017 Chevrolet Corvette Grand Sport,$56888,Volkswagen of West Islip,40.7180884,-73.30897751594145
2019 Audi Q3 2.0T S line Premium,$35998,Grieco Honda,41.832428,-71.547768
2017 BMW X3 xDrive28i,$33957,Lexus of Watertown,42.36441495,-71.16785380179593
2020 Toyota 4Runner Limited,$51950,Kerry Toyota,39.003885653061225,-84.6548486122449
2020 Cadillac CT6-V 4.2L Blackwing Twin Turbo,$94246,Lockhart Cadillac Inc. - North,39.9714951632653,-86.00470451020408
2014 GMC Acadia Denali,$21691,Lockhart Cadillac Inc. - North,39.9714951632653,-86.00470451020408
2018 GMC Yukon SLT,$56674,Phillips Chevrolet of Lansing,41.57315783751026,-87.55894604437768
2016 Volvo XC60 T5 Premier,$21986,Fields Volvo Cars of Northfield,42.1115819,-87.7761777
2016 BMW X5 eDrive xDrive40e,$30200,M & I Motors,42.20375156,-87.83541559999999
2017 Nissan Rogue SL,$25896,Golf Mill Ford,42.0511832,-87.8338785521014
2008 INFINITI M35x Base,$11900,Champion Motorsports,41.66140822741286,-87.75253732625437
2019 INFINITI QX60 Luxe,$27999,Unlimited Motors LLC,41.74139837268898,-87.79933301620387
2020 Subaru Outback Touring XT,$37900,Napleton Off Lease,42.14231660649954,-88.00458957133496
2015 Mercedes-Benz C-Class C 300,$19995,Volkswagen of Orland Park,41.6016182,-87.8428351
2016 Land Rover Discovery Sport HSE,$28145,INFINITI of Orland Park A Zeigler Auto Group Company,41.601799065949066,-87.83165638227985
2018 Volkswagen Tiguan 2.0T SEL Premium,$30900,Napleton Off Lease,42.14231660649954,-88.00458957133496
2018 GMC Yukon SLE,$48200,Advantage Acura of Naperville,41.764826049999996,-88.19180821992713
2016 Chevrolet Tahoe LT,$41841,Hendrick Southpoint Auto Mall,35.8997111,-78.944612
2015 Jeep Grand Cherokee Limited,$22999,Max Madsen's Aurora Mitsubishi,41.74983482947228,-88.21784274757718
2020 Ford Expedition XLT,$54999,Capital Ford Of Charlotte,35.261321949999996,-80.77666715642692
2017 RAM 2500 Laramie,$54472,Hyundai of Columbia,35.64576761312856,-87.01278868983016
2019 Ford Mustang GT,$38950,Bommarito Ford,38.78165751022669,-90.3715381573145
2015 Toyota RAV4 Limited,$23571,Bommarito Toyota,38.779520722406964,-90.35780392891381
2019 BMW X4 M40i,$56995,United BMW,34.06715375,-84.31776349776027
2020 Acura MDX 3.5L w/Technology Package,$48591,Nalley Acura,33.9506836,-84.5206051
2015 Mercedes-Benz SL-Class SL 400,$37999,AX Auto Inc.,33.755810545454544,-84.47891890909091
2018 Jeep Grand Cherokee High Altitude,$38989,Kingdom Kia,37.9704347,-91.76027382485901
2018 BMW 540 i,$43995,BMW of Tuscaloosa,33.1703289676259,-87.49141723021583
2020 RAM 1500 Classic SLT,$26800,Auto Boutique,30.32296695192308,-81.53856213461539
2017 Chevrolet Tahoe LT,$37983,Coggin Toyota at the Avenues,30.1636484,-81.5380573
2021 Honda Pilot Special Edition,$44999,Superior Honda of Omaha,41.21886745,-96.13757556097848
2013 Chevrolet Camaro 2SS,$22800,Redline Auto Plaza,39.1411489,-96.658726
2019 Ford Expedition XLT,$55001,Mullinax Ford of Central Florida,28.6743359,-81.4822031
2018 Dodge Challenger SXT,$27999,Off Lease Only Orlando,28.451285872310788,-81.27531080544969
2009 Nissan Sentra 2.0 S FE+,$8484,Kirkpatrick Auto Sales,35.991455957894736,-95.88642597894737
2019 INFINITI QX80 Luxe,$57999,Matthews-Currie Ford,27.1187365,-82.4514827
2015 BMW 528 i,$15897,Hopper Motorplex,33.20568181609209,-96.63795381495724
2018 Audi S4 3.0T Premium Plus,$47998,Crest Auto Group,33.0897688,-96.832652
2015 Lexus ES 300h Base,$22500,David McDavid's Plano Lincoln,33.010220132530115,-96.75649312048192
2016 Mercedes-Benz E-Class E 350,$22950,European Motors,33.0277333,-96.8082109
2020 Chrysler Pacifica Hybrid Limited,$42700,Dallas Chrysler Dodge Jeep RAM,32.9140755,-96.7391971
2020 Honda Pilot EX-L,$38997,Liberty Mitsubishi,44.07690525,-103.19102334558156
2018 BMW 530e iPerformance,$36579,EchoPark Automotive Houston Southwest Freeway,29.672606199999997,-95.54983764932373
2015 Ford F-150 Lariat,$30499,Texas Direct Auto,29.64613459090909,-95.57306290909091
2018 Ford Escape SE,$23602,Loveland Ford Lincoln,40.4059148,-105.0399289
2018 INFINITI Q50 3.0t LUXE,$31763,Chapman Value Center Scottsdale,33.46577516513404,-111.92835687439899
2020 Toyota RAV4 LE,$29598,AutoNation Toyota Tempe,33.34433405,-111.97084524007195
2008 Honda Accord LX,$6995,Prescott Honda,34.59724383925323,-112.46351567907844
2018 Lexus GX 460 Base,$47880,Definitive Motors,47.61231314141414,-122.18569017171717
2016 Land Rover Range Rover 5.0L Supercharged Autobiography,$66980,AutoNation Toyota Irvine,33.640575049999995,-117.73536155985599
2018 Alfa Romeo Giulia Ti,$30722,STG Auto Group - Garden Grove,33.762962851405625,-117.91999963253012
2018 BMW M3 Base,$81885,Century West BMW,34.1470419117647,-118.36394273529412
2018 Mazda CX-5 Sport,$20949,Karplus Warehouse Inc.,34.2732603,-118.4297149
2020 Mercedes-Benz GLE 450 AWD 4MATIC,$72991,Mercedes-Benz of San Jose,37.3237817,-121.8083133
2019 BMW 540 i xDrive,$51167,BMW of Rochester,43.1126594,-77.6234451
2016 Ford Focus SE,$13869,North Coast Auto Mall of Bedford,41.39931105263158,-81.54470015789474
2020 Jeep Grand Cherokee Altitude,$37500,Suburban Chrysler Dodge Jeep RAM of Garden City,42.3259117,-83.36416259947467
2017 Chevrolet Cruze LT,$18272,J. L. Freed Honda,40.25436347985438,-75.24774433658426
2019 Mazda CX-5 Signature,$33000,Heritage Mazda Towson,39.425764900000004,-76.62004273028896
2017 Chevrolet Tahoe Premier,$47926,Ourisman Chevrolet Baltimore - Curbside pickup and home delivery available,39.3115314,-76.7373268
2015 Lexus GX 460 Base,$32900,Rolls Auto Sales,40.03029133333333,-75.0550492
2016 Acura MDX 3.5L w/Technology Package,$25735,East Coast Auto Group of Linden,40.641072,-74.260849
2020 Nissan Rogue Sport S,$22405,Where Luxury Meets,40.652739,-74.21581
2011 Honda Odyssey Touring,$20950,Kensington Auto Sales Inc,39.02703855,-77.07048070040469
2021 Lexus RX 350 Base,$48969,Lexus of Manhattan,40.764928125000004,-73.9954485
2020 Jeep Wrangler Unlimited Rubicon,$53000,Koons Tysons Toyota,38.9325866,-77.2433677
2013 Nissan Maxima S,$2500,Midwest Auto & Truck,40.301567,-83.067376
2018 Subaru Crosstrek 2.0i Premium,$25999,CarShop Mt. Holly,40.0077575,-74.7975879
2017 Lexus IS 300 Base,$19444,Auto Buying Service,38.87139250929483,-77.2369953408023
2014 Audi RS 7 4.0T Prestige,$61444,Auto Buying Service,38.87139250929483,-77.2369953408023
2017 Hyundai Elantra Limited,$18750,"Fairfax Motors, Inc.",38.84353032749354,-77.28861722590275
2010 Volkswagen GTI 2-Door,$12995,Drive Direct,40.05829025,-82.95655900767797
2017 Cadillac Escalade ESV Platinum,$59999,Country Chevrolet,38.72767424900879,-77.79051385512821
2016 Mercedes-Benz S-Class S 550 4MATIC,$44995,Baron Auto Emporium,40.7913135,-73.65297321154219
2019 Ford F-150 Platinum,$54700,DCH Ford of Eatontown,40.291167,-74.05053
2018 Volvo S60 T5 Dynamic,$27490,Stream Auto Outlet,40.66767525,-73.70919295763647
2017 Toyota Corolla EDITION NATL,$14695,Lease Return Center,38.553712,-77.332674
2017 Toyota Corolla EDITION,$18110,Unique Auto Import,38.562132,-77.32902418750001
2008 Toyota Sequoia Limited,$18157,Angola Chrysler Dodge Jeep Ram,41.628721,-84.9991316
2015 Honda Accord EX-L,$16988,Ira Toyota of Manchester,42.95239375,-71.4385646000504
2018 Audi SQ5 3.0T Premium Plus,$48787,Bernardi Volvo Cars Natick,42.299096950000006,-71.36154157543348
2019 BMW X5 xDrive40i,$61995,Audi Natick,42.301943800000004,-71.34653611622232
2018 Audi SQ5 3.0T Premium Plus,$52995,Wellesley Volkswagen,42.3003001,-71.2916002
2019 MINI Countryman Cooper S ALL4,$31500,Automax Preowned Attleboro,41.905653650000005,-71.36503552038478
2018 BMW X2 xDrive28i,$33998,BMW Certified Pre-Owned Medford,42.4133169,-71.10783563733952
2018 Mitsubishi Outlander PHEV GT,$29990,North End Motors,42.182278,-71.1142096
2008 BMW 528 xi,$8888,Indy Luxury Motorsports,39.956812,-86.03835444897959
2019 Jeep Grand Cherokee Limited,$36676,Southern Chrysler Dodge Jeep Ram Greenbrier,36.79848295,-76.23075709639153
2017 GMC Yukon SLT,$38877,Bosak Chrysler Jeep Dodge RAM,41.4702267,-87.3734296
2019 Acura MDX 3.5L w/Technology Package,$40500,McGrath Acura of Chicago,41.905068549999996,-87.65892337481178
2019 Acura MDX 3.5L w/Technology Package,$38807,North City Honda,42.00214435,-87.6903774
2018 Genesis G80 3.3T Sport,$37649,Gregory Hyundai,42.16080210387052,-87.80777023713071
2018 Hyundai Sonata SE,$19934,Muller Honda of Gurnee,42.3705699,-87.8886123
2013 Acura RDX Base,$13999,Premier Auto,42.1368164,-88.0185691
2019 Audi S4 3.0T Premium Plus,$48495,Audi Westmont,41.80976351428571,-87.98376145714286
2014 BMW X5 xDrive35i,$28995,Conway Imports,41.99939212659542,-88.17049067827047
2017 Nissan Rogue SV,$21563,Elgin Hyundai,42.036823,-88.264035
2019 Volkswagen Atlas 3.6L V6 SEL,$43995,Valley Honda,41.75199561737755,-88.21097023284219
2013 Jeep Wrangler Unlimited Sahara,$29999,Gastonia Chrysler Dodge Jeep Ram,35.261274037735845,-81.13616030188679
2021 Jeep Grand Cherokee Trailhawk,$52726,North Knoxville Chrysler Dodge Jeep Ram,36.023879706338704,-83.99985082669323
2018 Land Rover Range Rover Supercharged,$96981,Global Motorsports Inc,35.967376279062094,-86.81594033230134
2020 Ford F-250 Platinum,$83928,Shottenkirk Ford,34.44832265652304,-84.44768378733394
2017 RAM 2500 Laramie,$58440,Hyundai of Columbia,35.64576761312856,-87.01278868983016
2018 Volvo S90 T5 Momentum,$32498,Dyer & Dyer Volvo Cars,33.9105437,-84.2895035
2021 Subaru Outback Limited,$29998,Import Auto Sales,44.9738043,-93.3631553
2018 BMW X1 xDrive28i,$30390,BMW of Minnetonka,44.971436343797144,-93.47865389844314
2015 GMC Sierra 1500 SLT,$34899,Bedrock Motors,45.205516,-93.55437051447416
2021 Honda Odyssey Touring,$45875,Honda of Tiffany Springs,39.26196485,-94.66309499367786
2010 INFINITI G37 Journey,$13400,Mullinax Ford of Central Florida,28.6743359,-81.4822031
2015 Honda Civic LX,$13998,HGreg.com Orlando,28.4502751,-81.3366304
2018 Tesla Model S P100D,$86250,Napleton's Palm Beach Acura,26.708008292682926,-80.15406407317073
2015 Acura RDX Technology Package,$20499,Bonham Chrysler Jeep Dodge Ram,33.5714441622508,-96.19830981749385
2018 Ford Edge Titanium,$31458,Ford Family Automotive,33.2532798,-95.91187858142808
2019 Toyota Highlander Limited,$42400,Hampton Toyota,30.161310886571783,-92.0847549142309
2018 Nissan Murano SL,$28995,Weston Nissan Volvo Cars,26.074411512377612,-80.36254056280944
2019 Kia Optima LX,$18833,Miami Car Credit,25.9523744,-80.20627214683398
2020 Ford Ranger XLT,$30965,Metro Ford,25.8576881,-80.2101423
2017 Mercedes-Benz GLS 450 Base 4MATIC,$52000,Brickell Luxury Motors,25.7657087,-80.2035886
2019 Honda Civic LX,$17499,Legend Autohaus,32.893927500000004,-96.91031243388883
2021 Toyota Tacoma SR,$34790,Freeman Toyota,32.812564459958,-97.2075736579687
2020 Chevrolet Traverse LS,$30000,AutoSavvy Fort Worth,32.836924,-97.311305
2017 Acura MDX 3.5L w/Technology Package,$24200,AutoSavvy Houston,29.9287644,-95.6391205
2015 BMW 528 i xDrive,$22500,Gebhardt BMW,40.02913451020408,-105.24267975510203
2017 Jeep Grand Cherokee Laredo,$25975,Bill Luke Santan,33.28824335,-111.76320468091359
2016 Honda Accord LX,$20700,Showcase Honda,33.508390500000004,-112.05279568092652
2020 Toyota Tacoma TRD Off Road,$42495,Larry H. Miller Toyota Peoria,33.63676205,-112.24288691297463
2016 Land Rover Discovery Sport HSE,$22988,Carter Acura,47.8278417,-122.3092665
2013 Toyota 4Runner Limited,$31952,AutoNation Toyota Cerritos,33.86272491566265,-118.09952732931727
2016 Lexus GS F Base,$47995,Future Auto Sales,34.1371842,-118.2550408
2018 Audi A4 2.0T Tech ultra Premium,$30993,Audi Beverly Hills,34.066942294117645,-118.38501764705882
2017 Honda Accord EX-L,$22234,DCH Gardena Honda,33.889133,-118.30969647391548
2019 RAM 1500 Laramie,$49000,Hoblit Chrysler Dodge Jeep RAM,38.67760854732164,-121.7775298426384
2007 Mercedes-Benz S-Class S 550,$21999,Mercedes-Benz of Walnut Creek,37.9111159,-122.06347891673693
2012 Hyundai Veloster w/Red Int,$5999,Empire Motors,41.4191979,-81.71423694925943
2018 Ford Edge Titanium,$30904,Pat Milliken Ford,42.3662761,-83.27452399076908
2015 Acura TLX Tech,$19995,PAAUTOSALES.COM,40.100903,-75.00651500000001
2018 Nissan Maxima 3.5 S,$21695,Riverside Nissan,40.88953280396392,-74.0385679827027
2017 Alfa Romeo Giulia Quadrifoglio,$56350,Vantage Auto Wholesale,40.840188415644214,-74.0714311806499
2017 Hyundai Elantra SE,$13688,Fitzgerald Hyundai,39.0586561,-77.1213411
2018 Lexus LC 500 Base,$70488,Fitzgerald Subaru,39.0586561,-77.1213411
2019 Ford F-150 Lariat,$48250,Koons of Tysons Chevrolet Buick GMC,38.91931235,-77.2337504282871
2004 Jeep Liberty Limited,$3995,OK Auto Mart,42.68370275376884,-84.53827859296482
2015 Mercedes-Benz S-Class S 550 4MATIC,$33444,Auto Buying Service,38.87139250929483,-77.2369953408023
2017 Honda Civic LX,$18000,Koons Outlet,38.878992530612244,-77.17333120408163
2017 BMW 340 i xDrive,$36990,BMW of Alexandria,38.80802355,-77.12884097765054
2018 Audi S5 3.0T Prestige,$43977,King of Jamaica auto inc,40.71079725,-73.7712184
2015 BMW 335 i xDrive,$27995,INFINITI of Suitland,38.82394350921767,-76.91947659233153
2018 BMW 440 i xDrive,$48998,Rallye BMW,40.7794382,-73.55773058873821
2014 Chrysler Town & Country Touring,$13495,InTouch Auto Outlet,38.2060158,-77.581952
2018 Jeep Compass Latitude,$28518,Merchants Automotive Group,43.04994705,-71.43796391810024
2017 BMW X3 xDrive35i,$32948,Tulley Automotive Group,42.72437805,-71.44713818334205
2013 Mercedes-Benz S-Class S 550 4MATIC,$35991,Mercedes-Benz of Burlington,42.4939903,-71.1938395
2019 Cadillac XT5 Luxury,$39988,Jake Sweeney Chevrolet,39.286840850000004,-84.46868354116782
2013 INFINITI QX56 Base,$15900,Imran Imports,39.1585548,-84.5394333
2019 Audi S4 3.0T Premium Plus,$49899,Audi Stratham,43.0065558,-70.91845296722968
2017 Audi Q7 3.0T Premium Plus,$32899,McGovern Hyundai,42.05691825,-71.05832469989984
2016 GMC Sierra 1500 SLT,$38755,Lockhart Cadillac Inc. - North,39.9714951632653,-86.00470451020408
2019 BMW 330 i xDrive,$36550,McGrath Acura of Chicago,41.905068549999996,-87.65892337481178
2020 Lexus ES 350 Base,$42998,McGrath Lexus Chicago,41.90359011627907,-87.65832825581396
2017 Lexus IS 300 Base,$27000,Elite Motors,42.361645,-87.875787
2018 Ford Escape SEL,$23945,Schmit Bros. Ford,43.3850627,-87.9169173
2017 BMW X3 xDrive28i,$23524,Volkswagen of Oak Lawn,41.7146352,-87.7405923
2020 Toyota Camry LE,$21767,AutoNation Toyota Libertyville,42.266206260273975,-87.94965206849315
2021 Hyundai Palisade Limited,$52467,Napleton's Arlington Heights Chrysler Dodge Jeep RAM,42.13904393267289,-87.99831535013908
2019 Acura MDX 3.5L Technology & A-Spec Pkgs,$43995,Arlington Acura in Palatine,42.135980967626175,-88.07480165251582
2014 Lexus LS 460 Base,$29990,Auto Gallery Chicago,41.913908045933745,-87.98882527792976
2019 Land Rover Range Rover Sport HSE Dynamic,$76977,Bill Jacobs BMW,41.76420335,-88.194784077569
2018 BMW X1 xDrive28i,$31689,Grayson BMW,35.90115246887843,-84.13873733464905
2020 Ford Explorer Limited,$37489,EchoPark Automotive Augusta Delivery Center,33.512571,-82.046064
2021 Jaguar F-PACE S,$55999,Jaguar Land Rover of North Atlanta,34.040486349039064,-84.32241215118452
2018 Porsche Panamera Base,$73900,Jaguar Land Rover of North Atlanta,34.040486349039064,-84.32241215118452
2020 Mercedes-Benz GLB 250 Base,$43966,ALM Roswell,34.0426782,-84.3370645
2016 Chevrolet Corvette Stingray,$51000,Car Connection Inc.,33.8573542061621,-84.19431733752772
2019 Toyota Land Cruiser V8,$84900,Jaguar Land Rover Buckhead,33.83768954999999,-84.36875098232096
2019 Honda Odyssey EX-L,$37799,Walser Honda,44.73566362698626,-93.28527546821121
2019 Lexus RX 350 350,$48299,Willis Automotive,41.6005971,-93.7520403
2019 Toyota Camry SE,$28991,Principle Toyota,35.05001809445191,-89.8183938428913
2018 BMW 540 i,$42395,BMW of Tuscaloosa,33.1703289676259,-87.49141723021583
2018 Jeep Grand Cherokee Limited,$34900,Oakes Kia,39.150512,-94.58048
2018 Lexus RX 350 350,$46982,Hendrick Lexus Kansas City,38.9935407,-94.7012688
2007 Lincoln MKZ ,$7990,Best Finish Auto Sales & Service,41.046260399498635,-95.74010898279394
2018 Honda Odyssey EX-L,$29450,Unisell Auto,41.169326684842915,-95.92665546561835
2014 BMW X5 xDrive50i,$26990,Superior Mazda of Bentonville,36.3446331,-94.1846266
2010 Lincoln MKZ Base,$6480,Greenway Ford,28.5535468,-81.3222981
2021 Mazda CX-9 Touring,$38806,Boniface-Hiers Mazda,28.09325854499891,-80.61145073990066
2019 INFINITI QX80 Luxe,$49890,Bayshore Automotive,28.008182282828283,-82.1378766161616
2021 Toyota Supra 3.0,$58948,Subaru of North Tampa,28.0544869,-82.4514045
2020 Mercedes-Benz AMG C 63 S,$87991,Napleton's Palm Beach Acura,26.708008292682926,-80.15406407317073
2021 Volvo S60 T5 Momentum,$35722,Volvo Cars of Naples,26.1171084,-81.6880392
2021 Jeep Wrangler Unlimited Rubicon 392,$91276,Rob Lambdin's University Dodge RAM,26.053430034480197,-80.25169981344631
2020 Lexus NX 300 F Sport,$39423,Acura of Pembroke Pines,26.0076535,-80.3370054
2015 Jeep Grand Cherokee Limited,$24498,Sewell Lexus of Dallas,32.83372985,-96.83045232210131
2020 Acura TLX A-Spec,$34823,Hiley Acura,32.84142235,-97.30730979568798
2016 Chevrolet SS Base,$41491,AutoNation Acura Gulf Freeway,29.496576246376545,-95.10962505845276
2011 Lexus LX 570 Base,$34995,ADI Autosport,39.680888249999995,-104.86535904484455
2019 Mercedes-Benz CLA 250 Base 4MATIC,$34799,Mercedes-Benz of Loveland,40.433857,-104.9943383393398
2018 Toyota Tacoma TRD Off Road,$40598,AutoNation Toyota Arapahoe,39.59511510067114,-104.86636880536912
2019 Jeep Grand Cherokee Altitude,$43299,Larry H. Miller Chrysler Dodge Jeep Ram 104th,39.88429945,-105.00850802873649
2016 GMC Yukon XL Denali,$37995,Drive N-Motion Englewood,39.6550622,-104.9876972
2020 Toyota 4Runner SR5 Premium,$45476,Hertz Car Sales,45.755215,-108.58847872751146
2016 Audi Q3 2.0T Prestige,$24575,AutoNation Audi Volkswagen Spokane,47.656932,-117.27056924955616
2020 Ford F-150 XLT,$38988,Earnhardt Chrysler Jeep Dodge RAM,33.29060105,-111.75650301310455
2019 Hyundai Santa Fe XL SE,$30911,Foothills Toyota,48.4493783,-122.34626551629285
2019 Chevrolet Silverado 2500 LTZ,Not Priced,Northwest Motorsport - Puyallup,47.199856,-122.298606
2020 Ford Ranger XLT,$39999,Sunrise Ford of Fontana,34.070212,-117.45583369660746
2019 Honda CR-V EX-L,$29831,Lake Elsinore Honda,33.6901778,-117.3399002
2019 Ford F-150 Raptor,$74995,Maserati of Anaheim Hills/Alfa Romeo of Anaheim Hills,33.8722454,-117.74200259501532
2018 Honda Civic Sport,$23000,Manly Hyundai,38.4124474,-122.7173859
2018 Honda Accord EX-L,$26777,Great Lakes Honda,41.1147835,-81.493009
2019 Ford Flex SEL,$28899,Taylor Ford,42.2266396,-83.2689523
2020 Dodge Charger Scat Pack,$49886,Kelly Automotive Group Lehigh St.,40.547761591459654,-75.48977340738787
2018 GMC Yukon XL Denali,$63695,Sellers Buick GMC,42.46851556792426,-83.421136874111
2019 Jeep Grand Cherokee Limited,$35991,Route 46 Chrysler Jeep Dodge RAM,40.885904630092206,-74.21564222183625
2018 Volvo S90 T5 Momentum,$36500,Koons Volvo Cars White Marsh,39.37408171735645,-76.4486747019729
2018 Chevrolet Suburban LT,$56500,Ingersoll Auto of Pawling,41.567523830625035,-73.61505083004216
2018 Toyota RAV4 Hybrid Limited,$37997,MAC Cars,39.6682352,-75.6018176
2018 BMW X5 M Base,$67371,East Coast Auto Group of Linden,40.641072,-74.260849
2013 BMW X1 xDrive 28i,$12000,Axis Motorcars,40.70313,-74.075955
2020 Tesla Model Y Long Range,$62500,Koons Tysons Toyota,38.9325866,-77.2433677
2015 Mercedes-Benz S-Class S 550 4MATIC,$43000,Koons Tysons Toyota,38.9325866,-77.2433677
2021 Land Rover Defender X-Dynamic S,$79870,Porsche Tysons Corner,38.9291979,-77.24354102728748
2016 Audi Q5 2.0T Premium Plus,$22980,NYC Motor Cars,40.8746729,-73.8518475
2018 Toyota 4Runner TRD Pro,$39950,26 Motors Queens,40.7408024,-73.8992192
2017 Mercedes-Benz S-Class S 550 4MATIC,$38444,Auto Buying Service,38.87139250929483,-77.2369953408023
2004 Jeep Grand Cherokee Limited,$6981,H & R Auto,38.8832959083003,-77.09213576091342
2017 Lexus ES 350 Base,$28666,Merlex Auto Group,38.8764803,-77.1087201
2020 Acura MDX 3.5L w/Technology Package,$47012,Plaza Auto Mall,40.6177464,-73.9455131316282
2018 Mercedes-Benz GLC 300 Base 4MATIC,$37127,Queens Auto Mall,40.592756,-74.09401566666666
2012 Subaru Outback 3.6R Limited,$10995,JDM Auto,38.29816,-77.4581257
2012 Chevrolet Tahoe LT,$19995,InTouch Auto Outlet,38.2060158,-77.581952
2020 Ford Edge SEL,$30997,Jim Stykemain Chevrolet Buick GMC,41.7976319,-85.4324054
2009 Lexus LS 460 Base,$18995,Elite Imports LLC,39.31670018937424,-84.37127979686883
2018 Audi A5 2.0T Premium Plus,$40987,Audi Stratham,43.0065558,-70.91845296722968
2011 Toyota Highlander SE,$14977,Castle Ford Lincoln,41.68298902045644,-86.8938603663559
2015 Mercedes-Benz M-Class ML 350 4MATIC,$24995,Indy Wholesale Direct,39.928545150000005,-86.23978134906244
2006 Lexus LS 430 ,$9161,Carver Toyota of Columbus,39.297587916213054,-85.95868552670983
2016 GMC Yukon SLT,$39933,Van Horn Hyundai of Sheboygan,43.702243752407064,-87.75817681211706
2017 Ford F-150 Lariat,$32995,Lake Chevrolet,42.9699927,-87.94599379466405
2018 Mercedes-Benz GLE 350 Base 4MATIC,$46414,Autohaus on Edens,42.1221491,-87.7826432
2019 INFINITI QX80 Luxe,$55880,INFINITI Milwaukee,42.99892342549537,-88.04519682672668
2016 GMC Yukon SLT,$41991,Hall Volkswagen Mazda,43.035688,-88.1593845
2015 Mercedes-Benz S-Class S 550 4MATIC,$43995,Highline Auto Sales,41.749809476510066,-87.93793129530201
2016 Land Rover Discovery Sport HSE,$27500,Mercedes-Benz of Westmont,41.810068290322576,-87.97232948387096
2015 Cadillac Escalade Premium,$42999,Auto Barn NC,35.93628,-78.108457
2020 Acura MDX 3.5L Technology & A-Spec Pkgs,$48504,D'Arcy Hyundai,41.52216154264396,-88.14708489214367
2015 Cadillac Escalade Premium,$46998,Hendrick Buick GMC Cadillac Cary,35.7397062,-78.81682733701479
2013 Ford Escape SEL,$13985,Klein Ford,44.1115109,-88.6969665
2018 GMC Sierra 1500 SLT,$48699,EchoPark Automotive Charlotte,35.201549358931146,-80.78137517898408
2019 Ford Edge Titanium,$39910,Westown Ford Lincoln,39.723305586106115,-90.24479634689787
2018 Jeep Grand Cherokee Limited,$31148,BMW Certified Pre-Owned Nashville,36.10479315,-86.76071356736134
2020 Honda Accord Touring 2.0T,$38490,Mungenast St. Louis Honda,38.5541275,-90.4070336
2020 Mazda CX-5 Touring,$24589,EchoPark Automotive Atlanta (Marietta),33.9042384,-84.4887248
2018 Toyota RAV4 Limited,$28295,Phillips Toyota Scion,28.8226767,-81.7848588
2012 Nissan GT-R ,$84990,"Discovery Auto Center, LLC",28.04618651020408,-82.45950779591836
2021 Tesla Model 3 Standard Range Plus,$48499,Rick Case Acura,26.1004362,-80.2012388
2018 Toyota RAV4 XLE,$24699,Toyota of North Miami,25.9266547,-80.20506057906715
2012 Audi A4 2.0T Premium Plus,$12999,Wells Auto Group,33.198779,-96.6383565
2019 Honda CR-V EX-L,$30964,Frisco Chrysler Dodge Jeep Ram,33.115203,-96.7620662
2018 Toyota 4Runner Limited,$43994,Ewing Buick GMC,33.0838823,-96.8237059
2017 Toyota Highlander Limited,$34610,Toyota of Plano,33.0979369,-96.8020103
2019 RAM 1500 Laramie,$46892,Richardson Chrysler Jeep Dodge Ram,32.96560125,-96.72420950788853
2016 Volvo XC90 T6 Momentum,$32998,Hi Line Motors,33.0155688,-96.78426122361972
2018 Kia Sorento LX,$22000,Lewisville Volkswagen,33.03772502859894,-97.00073746702971
2017 RAM 1500 Laramie,$39997,Sewell Cadillac of Dallas,32.84658335,-96.83434949650301
2019 Nissan Murano SL,$31962,Texas Toyota of Grapevine,32.92499565,-97.06925677593668
2019 Honda CR-V EX-L,$32000,Classic Chevrolet,32.92829982825729,-97.08579528012358
2021 Toyota Tacoma SR,$35990,Freeman Toyota,32.812564459958,-97.2075736579687
2017 BMW 330 i,$19200,AutoSavvy Fort Worth,32.836924,-97.311305
2018 Land Rover Range Rover 5.0L Supercharged,$84988,Cleburne Ford,32.3486583,-97.3871263
2015 Nissan Sentra S,$9991,Houston Direct Auto,29.721900201342283,-95.52502347651007
2016 Mercedes-Benz S-Class S 550 4MATIC,$85991,ABZ Motors,29.7001794,-95.5176286
2017 Mercedes-Benz GLS 450 Base 4MATIC,$44987,Sterling McCall Buick GMC,29.7001794,-95.5176286
2017 Ford F-150 XLT,$28900,Advantage Auto Direct,47.4124549,-122.2411458
2018 Dodge Charger R/T 392,$41480,AutoNation Toyota Irvine,33.640575049999995,-117.73536155985599
2020 Lexus NX 300 Base,$38471,Newport Lexus,33.65761045,-117.86426117692447
2018 BMW M3 Base,$67500,Lexus of Cerritos,33.861799,-118.099521
2017 Acura NSX Base,$152200,Lexus of Cerritos,33.861799,-118.099521
2019 BMW X5 xDrive40i,$60999,Beverly Hills BMW,34.06177225,-118.34016088682111
2021 Cadillac XT6 Premium Luxury FWD,$61158,Cadillac of Beverly Hills,34.06697438488949,-118.38309984575312
2017 Mercedes-Benz AMG G 63 Base,$137995,Win Chevrolet,33.8248732,-118.235759
2019 BMW 540 i,$48999,South Bay BMW,33.859621,-118.352416
2018 Mercedes-Benz E-Class E 300,$40999,Mercedes-Benz of Walnut Creek,37.9111159,-122.06347891673693
2018 Subaru Outback 3.6R Limited,$36800,Sunset Honda,35.25016093262104,-120.68564814675834
2015 Jeep Grand Cherokee Summit,$29549,AutoNation Toyota Hayward,37.6304891,-122.0480377
2018 RAM 1500 Express,$30469,Gary Miller Chrysler Dodge Jeep RAM,42.0692033,-80.0936735
2019 Subaru Impreza 2.0i,$19897,Ganley Subaru of Bedford,41.402435636363634,-81.55213681818182
2019 Honda Civic Sport,$25900,Smiley Automotive,41.2720137,-82.60971392002563
2020 Toyota Corolla LE,$23500,Parsons Opequon Motors,39.46482122883085,-77.9464010776162
2019 Kia Optima LX,$14800,Auto Choice,39.413545,-77.425387
2020 Nissan Pathfinder S,$30000,Younger Nissan,39.3905606875,-77.40766721875
2019 Ford Transit-250 Base,$41995,Sawyer Lyons Buick GMC of Randolph,40.855104125851426,-74.61249639517686
2018 Honda Accord LX,$22600,Heritage Mazda Towson,39.425764900000004,-76.62004273028896
2019 Jeep Grand Cherokee Limited,$39000,Jones Used Cars,39.5170272,-76.3650415
2004 Lincoln LS Sport,$3595,Great Auto Deals,40.17394,-75.109358
2016 Toyota Highlander XLE,$30000,Heritage Toyota Catonsville,39.2850117,-76.75464365049393
2020 Dodge Durango R/T,$51964,Monster Motors,42.23697620134229,-84.3409242885906
2019 Jeep Grand Cherokee Limited,$33495,Victory Mitsubishi,40.885419,-73.82900627272727
2016 Mercedes-Benz AMG GT AMG GT S,$126756,Brooklyn Mitsubishi,40.65241881632653,-73.92161630612246
2019 Nissan Rogue SL,$29200,Nissan North,40.1093349,-83.0167399
2013 Lexus LX 570 Base,$53491,Victory Motors,38.7593655,-77.4542367
2015 Honda Accord Sport,$14990,Great Neck Motorsports,40.780480100000005,-73.73243176339761
2018 Audi A4 2.0T Premium,$33990,Audi of Fairfield,41.16485835,-73.23018955475825
2014 Toyota Highlander Hybrid Limited,$27997,Fred's Executive Auto,38.6359792631579,-77.27007594736843
2018 Mercedes-Benz E-Class E 400 4MATIC,$47833,BMW of Freeport,40.656015335663355,-73.59418780588547
2018 Lincoln MKX Reserve,$35793,Kindle Auto Plaza,39.076567125,-74.801107625
2014 Honda Accord EX-L,$17995,White Allen Chevrolet,39.767346,-84.19275391004193
2018 Lexus RX 350 F Sport,$45500,AutoMax Preowned Framingham,42.2988385,-71.3973376
2015 BMW 328 i xDrive,$29772,Lexus of Watertown,42.36441495,-71.16785380179593
2012 Audi Q5 2.0T Premium,$14978,Prestige Auto Mart,41.646466549618324,-71.06004204580152
2019 Honda Civic LX,$21125,Indy Honda,39.7731036,-86.1542341
2018 Nissan Rogue SV,$24723,Neil Huffman Chevy GMC Nissan of Frankfort,38.1804448781362,-84.81539626523298
2006 BMW 750 i,$4300,First Marshall Auto Auction,41.62269891153977,-87.63200375921836
2013 Ford Fusion SE,$11495,Lake Ford,42.96773269191919,-87.9483171969697
2018 Honda Odyssey EX-L,$34175,McGrath City Honda,41.9235511,-87.8019969
2021 Volvo XC90 T6 Momentum 6 Passenger,$60890,The Autobarn Volvo Cars of Oak Park,41.872368,-87.80397849623391
2018 Ford F-150 XLT,$36500,Sutton Ford,41.501849152224295,-87.751531
2013 Ford Explorer Limited,$15495,Advantage Chevrolet,41.7785718,-87.86640532271846
2019 BMW 540 i xDrive,$51712,BMW of Orland Park,41.6009253,-87.8721789
2021 Toyota Supra 3.0,$54888,Willowbrook Ford Kia,41.75473195,-87.94358541663355
2014 Toyota Sequoia Platinum,$33795,Woodfield Lexus,42.04990799317999,-88.07054829748465
2013 Toyota Corolla LE,$13000,Napleton Aston Martin Maserati,41.8069231,-88.0377099
2018 Jeep Grand Cherokee Summit,$42490,Toyota of Fox Lake,42.39247599504513,-88.18346090580268
2014 GMC Sierra 1500 SLT,$34466,Lexus of Naperville,41.7625291,-88.194628096224
2017 Volkswagen Golf R 4-Door,$34152,Lexus of Naperville,41.7625291,-88.194628096224
2013 Toyota Highlander Limited,$22649,Audi Naperville,41.76587155,-88.18443167615875
2012 Porsche Cayenne S,$16652,Leith Chrysler Jeep,35.86006918686022,-78.58142487991559
2021 Hyundai Palisade SE,$39700,O'Brien Hyundai of Normal,40.521872,-88.951058
2018 Toyota 4Runner Limited,$45691,Beaver Toyota Cumming,34.1770994,-84.1302018
2010 Mercedes-Benz E-Class E 350,$9995,Affordable Auto Credit,38.58416444058399,-90.26333454899837
2018 Jeep Grand Cherokee Limited,$33977,Century Dodge Chrysler Jeep RAM,38.8055168,-90.8260681
2018 Honda CR-V EX-L,$29993,Scott Evans Dodge Chrysler Jeep RAM,33.6128915,-85.0047149
2015 Mercedes-Benz S-Class S 550 4MATIC,$47975,Automotion sales,44.9447058,-93.3238015
2018 INFINITI Q70L 3.7X LUXE,$38791,Jim Lupient INFINITI,44.97241115,-93.37381927886503
2018 BMW X1 xDrive28i,$32671,BMW of Minnetonka,44.971436343797144,-93.47865389844314
2019 Toyota 4Runner Limited,$47299,Joe Machens Mazda Mitsubishi,38.971512315789475,-92.33109194736842
2016 Honda Accord EX-L,$17950,TJK AUTO LLC,41.21265272483222,-96.04876608053691
2020 Tesla Model X Performance,$122500,Dillon's Auto Supercenter,40.876574399999996,-96.68110760624474
2010 Acura RDX ,$14255,All Star Chrysler Dodge Jeep of Denham Springs,30.4531659,-90.956113
2021 Kia Telluride SX,$55905,Peltier Kia Tyler,32.2992038,-95.26513988785447
2018 Mercedes-Benz GLA 250 Base,$33663,Auto Web Expo,32.96931464289508,-96.84237192060792
2016 Lexus IS 200t Base,$31998,Sewell Lexus of Dallas,32.83372985,-96.83045232210131
2018 Ford F-150 XLT,$39999,Grand Prairie Ford,32.759882,-97.006923
2018 Honda Accord EX-L,$29850,Honda of Fort Worth,32.7255631571698,-97.47939103272638
2009 Audi Q7 4.2 Prestige,$3500,Texas Best Deal Autos,29.9618694,-95.4215255
2019 Cadillac Escalade Luxury,$70393,Mac Haik Chevrolet,29.7844993,-95.5933694
2020 RAM 1500 Limited,$60500,Courtesy Chrysler Dodge Jeep RAM of Superstition Springs,33.3904437,-111.69912359621222
2020 RAM 1500 Limited,$56000,Courtesy Chrysler Dodge Jeep RAM of Superstition Springs,33.3904437,-111.69912359621222
2019 BMW X5 xDrive40i,$53987,Acura of Peoria,33.6410361,-112.25546564894424
2015 Honda Accord EX-L V-6,$23998,Leskovar Mitsubishi,46.21236212922808,-119.16262568776747
2018 Tesla Model S DUAL MOTOR,$61998,CarLotz Seattle,47.8278417,-122.3092665
2019 BMW 540 i,$45985,AutoNation INFINITI Tustin,33.727183714285715,-117.79760316326531
2015 Mercedes-Benz S-Class S 550,$45000,House of Imports,33.86023173367829,-117.98628250373723
2020 Chevrolet Silverado 1500 LT,$38248,Hertz Car Sales Fresno,36.81928696667453,-119.79009485736405
2018 INFINITI QX60 Base,$28884,Dublin INFINITI,37.7027075,-121.9111873
2020 Jeep Grand Cherokee Limited,$40888,Stevens Creek Nissan,37.3237383,-121.9881196
2014 Toyota FJ Cruiser Base,$44900,Marin Imports,37.96141743457381,-122.50693148232796
2018 Honda Accord EX-L,$27533,Great Lakes Honda,41.1147835,-81.493009
2019 Nissan Rogue SV,$26997,Ken Pollock Nissan,41.2455226,-75.8563685
2003 Lexus ES 300 Base,$8995,Auto World,40.63786648105685,-75.47043671367595
2019 Kia Soul Base,$19900,Fuccillo Kia Schenectady,42.76705275,-73.89000944761257
2014 Toyota Tacoma Base,$31861,Tri County Toyota,40.22088643943626,-75.54243162044268
2019 Kia Soul Base,$18940,Destination KIA,42.67649195,-73.78698968833817
2003 Mercedes-Benz G-Class G500,$34995,The Car House,40.99943330533339,-74.35534127774665
2018 Jaguar XJ XJL Portfolio,$53898,Route 17 Mitsubishi,41.07240611111111,-74.14129299999999
2009 Mercedes-Benz S-Class S 550 4MATIC,$19995,Auto Show US,40.48127633393175,-74.48308732140063
2017 BMW X5 M Base,$57992,AutoNation Toyota Leesburg,39.1007077,-77.5392458
2018 Lexus NX 300 Base,$29899,Jack Daniels Kia,40.9265144,-74.0970761
2019 BMW X5 xDrive40i,$56519,Criswell Chevrolet,39.14544945,-77.21812069130695
2017 Toyota Corolla LE,$14495,J&S Autohaus III,40.2361,-74.689538
2018 Audi A3 2.0T Premium,$27997,Audi Rockville,39.070236,-77.13242437247501
2018 Lexus IS 300 Base,$34995,AMKO Auto of Laurel,39.10108309985811,-76.8225561887286
2013 Mercedes-Benz S-Class S 550 4MATIC,$28499,Axis Motorcars,40.70313,-74.075955
2016 Honda Odyssey EX-L,$26500,Koons Tysons Toyota,38.9325866,-77.2433677
2020 Chevrolet Suburban LT,$55950,New Rochelle Toyota,40.914802201302784,-73.77917833064521
2014 Acura MDX 3.5L Technology Package,$25995,Koons Annapolis Toyota,38.9765116,-76.51174032308967
2019 Kia Optima LX,$18995,Maximum Auto Outlet,38.7687052,-77.4456867
2019 Chevrolet Equinox 1LT,$21495,East Hills Chevrolet Douglaston,40.76438535,-73.74626664347625
2017 Toyota Camry XLE,$20981,Coughlin Kia of Lancaster,39.74464589619323,-82.64461310587154
2012 Acura MDX 3.7L Technology,$18990,Sheehy Honda,38.75488525,-77.08439370189576
2018 Honda Civic Touring,$24000,Auto Palace,39.9511032,-83.1554034
2018 Mazda CX-5 Touring,$24690,Garden City Mazda,40.7132156,-73.6297726
2019 Honda Passport Touring,$39943,BMW of Freeport,40.656015335663355,-73.59418780588547
2021 BMW M340 i xDrive,$56940,Power Motors East,40.67720265,-73.45220409236578
2019 Ford Explorer Limited,$35428,Ford Lincoln of Smithtown,40.8572904,-73.1641321
2020 Kia Sportage LX,$28293,Merchants Automotive Group,43.04994705,-71.43796391810024
2016 Mercedes-Benz C-Class C 300 4MATIC,$31998,The Highline Group,42.634545,-71.330786
2021 RAM 1500 Limited,$67500,Sheehy Ford Lincoln of Richmond,37.5085681,-77.488479
2020 Acura MDX 3.5L w/Technology Package,$49500,Boch Honda,42.156385,-71.202845
2017 Cadillac Escalade Luxury,$48472,Performance Honda,39.3415916,-84.5361347
2009 Nissan Altima 2.5 S,$6995,Dave's Auto Sales - Sheboygan,43.72306320408163,-87.7105998367347
2017 Jaguar F-PACE 35t Premium,$36000,Napleton River Oaks Honda,41.5661277,-87.5587877
2017 Toyota Sienna XLE,$26990,Chicago Northside Toyota,41.99127571417612,-87.68980481893182
2012 GMC Acadia SLT-1,$14985,Luxury Auto Selection,41.96411195,-87.73479270041082
2016 Audi A6 3.0T Premium Plus,$28500,Elite Motors,42.361645,-87.875787
2018 Land Rover Range Rover Sport 3.0L Supercharged HSE,$68999,"Steve Foley Cadillac, Rolls-Royce, Bentley Northbrook",42.15069092187261,-87.800729773819
2019 Acura MDX 3.5L,$37497,McGrath Acura of Libertyville,42.253557,-87.946837
2018 Chevrolet Camaro 2SS,$38979,Zeigler Nissan of Gurnee,42.4153882,-88.0459404
2019 Audi S4 3.0T Premium Plus,$46000,Wickstrom Auto Group,42.1659517,-88.1550122
2016 Audi A6 3.0T Prestige,$33783,Huntersville Ford,35.405626,-80.8542844
2019 Mitsubishi Outlander Sport 2.0 SE,$19500,Gastonia Chrysler Dodge Jeep Ram,35.261274037735845,-81.13616030188679
2015 Lexus GS 350 ,$30000,Hi-Line Autohaus,35.173467402010054,-80.74715585929648
2018 Jeep Grand Cherokee High Altitude,$38500,"Napleton Hyundai, Genesis of Hazelwood",38.78143245206581,-90.37065789045491
2015 Mercedes-Benz S-Class S 550 4MATIC,$48920,Used Imports Auto,33.9383296,-84.0264211
2020 Tesla Model Y Long Range,$64999,Atlanta Autos,33.976808,-84.548798
2018 Volvo S90 T5 Momentum,$33500,Volvo Cars of Marietta,33.9506836,-84.5206051
2018 Ford F-150 Lariat,$46984,Jones Chevrolet Humboldt,35.8378996021361,-88.89198504507324
2016 Honda Pilot Touring,$30995,Luther Brookdale Chevrolet,45.078148,-93.335213
2020 Ford F-150 Lariat,$56990,Southeast Car Agency,29.6884333,-82.3056031
2016 Hyundai Sonata Hybrid Limited,$17998,Jenkins Hyundai of Ocala,29.1530056,-82.1823724
2016 Chevrolet Tahoe LTZ,$33987,Jim Taylor Ford Lincoln,32.5410833,-92.6380295
2012 Cadillac CTS Luxury,$14399,Scotti's Auto Sales,27.298915357142857,-82.51375178571429
2018 Volvo XC60 T6 Inscription,$37995,Gettel Hyundai,27.29870347457627,-82.50048054237288
2018 BMW ALPINA B7 xDrive,$64889,Mercedes-Benz of Pompano,26.2606652,-80.1251966
2017 Mercedes-Benz C-Class C 300,$22583,Arrigo Dodge Chrysler Jeep Ram Sawgrass,26.19596165724643,-80.29123573663757
2020 Nissan Murano SL,$35995,Weston Nissan Volvo Cars,26.074411512377612,-80.36254056280944
2020 Ford Expedition Max XLT,$62877,Hopper Motorplex,33.20568181609209,-96.63795381495724
2019 Honda Civic LX,$19839,EchoPark Automotive Plano,33.0162774,-96.777718
2020 Honda Civic Sport,$20850,Precision Auto Sales,32.8214883,-96.630192
2018 RAM 1500 ST,$19450,Star Auto Group LLC,32.74907184705882,-96.97553041176471
2019 Honda CR-V EX-L,$31228,Huggins Honda,32.8358845,-97.21896882301117
2018 BMW 430 i,$29983,AutoNation USA Katy,29.784375142857144,-95.65612246938775
2015 Lexus GX 460 Base,$33997,Mercedes-Benz of Denver,39.6994719,-104.9402841
2016 Toyota Highlander XLE,$30058,Right Toyota,33.6343971,-111.91454558721853
2019 Buick Encore Preferred,$20688,Van Chevrolet,33.6304789,-111.89580055546949
2015 Lexus RC 350 Base,$39950,Eclipse Motor Co. LLC,33.701755261744964,-112.100076
2018 BMW X5 xDrive35i,$47987,Bill Luke Tempe,33.345967599999994,-111.96899750417242
2018 Chevrolet Cruze LS,$9990,American Auto Sales LLC,33.43084336734694,-112.07363785714286
2020 RAM 1500 Limited,$53970,Gateway Chevrolet,33.4577597,-112.3149172
2018 Cadillac XT5 Luxury,$38981,Findlay Cadillac,36.045049153874416,-115.02867915061053
2018 Honda Accord EX-L 2.0T,$26576,DCH Honda of Temecula,33.51389835,-117.15594194463668
2017 Nissan Altima 2.5 S,$16372,STG Auto Group of Montclair,34.06627297959184,-117.68946071428572
2021 BMW 330 i,$43777,BMW of Buena Park,33.86218,-117.989657
2018 Nissan Titan SV,$34601,Stevens Creek Cadillac,37.32296564069293,-121.97782848914011
2018 Toyota RAV4 XLE,$28111,Bidleman Ford,42.95584505,-76.54420310344506
2021 Toyota Supra 3.0,$64900,Dotta Chrysler Jeep,40.87247420900275,-75.23906433220588
2020 Ford Expedition XLT,$56000,Suburban Chrysler Dodge Jeep RAM Fiat of Ann Arbor,42.2859828,-83.80788119955446
2016 Chrysler 300C Base,$14995,Route 46 Nissan,40.89393,-74.230548
2017 BMW X3 xDrive28i,$24991,Straight Motor Sales,40.90763682142857,-74.16570807142857
2009 Acura MDX Technology,$5990,Moundbuilders Motor Group,40.033249388451054,-82.4350148691169
2016 Nissan Rogue SL,$13499,Prestige Imports Auto Sales,40.20239239285714,-74.78606732142858
2015 Volkswagen Jetta 1.8T SE,$8995,Vista Auto Group Inc,40.038352,-75.036767
2014 Mercedes-Benz E-Class E 350 4MATIC,$23784,Mercedes-Benz of Tysons Corner,38.928703999999996,-77.2432584642361
2019 Mercedes-Benz GLA 250 Base 4MATIC,$34697,Weeks Pre-Owned Center,41.3931494,-73.5101231
2021 Tesla Model S Plaid,$139995,Victory Mitsubishi,40.885419,-73.82900627272727
2015 Toyota Highlander Limited Platinum,$23444,Auto Buying Service,38.87139250929483,-77.2369953408023
2017 Land Rover Range Rover Evoque SE Premium,$24444,Auto Buying Service,38.87139250929483,-77.2369953408023
2018 Volvo S60 T5 Dynamic,$27000,Volvo Cars of Queens,40.75844695,-73.7755157653076
2020 Toyota Corolla LE,$21490,Easterns Automotive Group of Alexandria- Curbside and Home Delivery Available,38.805956,-77.130278
2019 Nissan Sentra SV,$18550,Middletown Nissan,41.5905767,-72.6762852
2020 Toyota Corolla LE,$21499,Lucky Line Motors,38.27315,-77.4928900881646
